{"results": [{"business_status": "OPERATIONAL", "geometry": {"location": {"lat": 42.2855556, "lng": -83.80388889999999}, "viewport": {"northeast": {"lat": 42.2871013302915, "lng": -83.80237881970848}, "southwest": {"lat": 42.2844033697085, "lng": -83.8050767802915}}}, "icon": "https://maps.gstatic.com/mapfiles/place_api/icons/v1/png_71/bar-71.png", "icon_background_color": "#FF9E67", "icon_mask_base_uri": "https://maps.gstatic.com/mapfiles/place_api/icons/v2/bar_pinlet", "name": "Carlyle Grill", "opening_hours": {"open_now": true}, "photos": [{"height": 1192, "html_attributions": ["<a href=\"https://maps.google.com/maps/contrib/107343709942383473542\">Carlyle Grill</a>"], "photo_reference": "AW30NDw4PPd_X_BH1c5VEqqriVT9fP-86qYbpL6gqUY_S07mK5On0JAzgm3vSK7OeoO-c7N_u996ezy1S41sRJM-vcwnuQsJs_NcDL8nHDEyVWfDTHZ6rzevpfBpHutafuVTNcWh_yPcumDF7Er0YKVgeUdONrGXOzqVL-m6vBWhwY8EVnoF", "width": 956}], "place_id": "ChIJtZrzip-xPIgREmeWAFYto1k", "plus_code": {"compound_code": "75PW+6C Ann Arbor, MI, USA", "global_code": "86JR75PW+6C"}, "price_level": 2, "rating": 4.4, "reference": "ChIJtZrzip-xPIgREmeWAFYto1k", "scope": "GOOGLE", "types": ["bar", "restaurant", "food", "point_of_interest", "establishment"], "user_ratings_total": 1467, "vicinity": "3660 Jackson Road, Ann Arbor"}, {"business_status": "OPERATIONAL", "geometry": {"location": {"lat": 42.28427019999999, "lng": -83.8066506}, "viewport": {"northeast": {"lat": 42.2856638302915, "lng": -83.8053729197085}, "southwest": {"lat": 42.28296586970851, "lng": -83.80807088029151}}}, "icon": "https://maps.gstatic.com/mapfiles/place_api/icons/v1/png_71/restaurant-71.png", "icon_background_color": "#FF9E67", "icon_mask_base_uri": "https://maps.gstatic.com/mapfiles/place_api/icons/v2/restaurant_pinlet", "name": "Uptown Coney Island - Ann Arbor", "opening_hours": {"open_now": true}, "photos": [{"height": 4032, "html_attributions": ["<a href=\"https://maps.google.com/maps/contrib/106964220908448074655\">Christopher Demetriou</a>"], "photo_reference": "AW30NDwY9Yl9Kypo_N24vaCq_qMFMh6iXd6sOH0cINh7vm19lxOb2ZcfykJEXNpr-pt8Y_RwP9i_wbwJWRgDkrrNTR2Lykc7fCGPk5xhN5-V1vTkUTS6r_zfEcD1RA1gmxAptwc58nMo_JhMJxbXUfHRspiCIa2GfqshRzRXHhW9CF-S-y2d", "width": 3024}], "place_id": "ChIJi_LsPKCxPIgRT9sJtvj7k20", "plus_code": {"compound_code": "75MV+P8 Ann Arbor, MI, USA", "global_code": "86JR75MV+P8"}, "price_level": 1, "rating": 4.4, "reference": "ChIJi_LsPKCxPIgRT9sJtvj7k20", "scope": "GOOGLE", "types": ["restaurant", "food", "point_of_interest", "establishment"], "user_ratings_total": 1323, "vicinity": "3917 Jackson Road, Ann Arbor"}, {"business_status": "OPERATIONAL", "geometry": {"location": {"lat": 42.284633, "lng": -83.8035163}, "viewport": {"northeast": {"lat": 42.28613188029151, "lng": -83.80226421970849}, "southwest": {"lat": 42.28343391970851, "lng": -83.8049621802915}}}, "icon": "https://maps.gstatic.com/mapfiles/place_api/icons/v1/png_71/bar-71.png", "icon_background_color": "#FF9E67", "icon_mask_base_uri": "https://maps.gstatic.com/mapfiles/place_api/icons/v2/bar_pinlet", "name": "The Session Room", "opening_hours": {"open_now": true}, "photos": [{"height": 2160, "html_attributions": ["<a href=\"https://maps.google.com/maps/contrib/108627368492037023715\">Tomi Saveski</a>"], "photo_reference": "AW30NDz2tsAv_JQORPOSO_z1aSVN4h624ETa7UpvKZ8I_n-Gx0qSYCQcn4A3MmHXJ0ou4T3d4SsTNmLZsmKcE-b7YMmTzAul6ueTtRkUu92luw602X7wQTBlz2Y5-wSG0w15BFR44j8Xjs94wgrNBZRFR00wzYTLl4O8ouNyzD5ZRFA4kCc8", "width": 3840}], "place_id": "ChIJ3yIvPqCxPIgRknxcyghSl9U", "plus_code": {"compound_code": "75MW+VH Ann Arbor, MI, USA", "global_code": "86JR75MW+VH"}, "price_level": 2, "rating": 4.4, "reference": "ChIJ3yIvPqCxPIgRknxcyghSl9U", "scope": "GOOGLE", "types": ["bar", "restaurant", "food", "point_of_interest", "establishment"], "user_ratings_total": 1553, "vicinity": "3685 Jackson Road, Ann Arbor"}, {"business_status": "OPERATIONAL", "geometry": {"location": {"lat": 42.2842898, "lng": -83.80629270000001}, "viewport": {"northeast": {"lat": 42.2856827802915, "lng": -83.80519276970851}, "southwest": {"lat": 42.2829848197085, "lng": -83.80789073029152}}}, "icon": "https://maps.gstatic.com/mapfiles/place_api/icons/v1/png_71/restaurant-71.png", "icon_background_color": "#FF9E67", "icon_mask_base_uri": "https://maps.gstatic.com/mapfiles/place_api/icons/v2/restaurant_pinlet", "name": "CHINA KING", "opening_hours": {"open_now": true}, "photos": [{"height": 3036, "html_attributions": ["<a href=\"https://maps.google.com/maps/contrib/114449434085372437350\">Humberto Mata</a>"], "photo_reference": "AW30NDyK5cBDQCOZEC-y83KM7bIJhts76AsgFtJ7r8iaEIoiEoYBdmh-Q6W-AnzBoUniDJ5OLvSUQMFbg-GXfwQV3HHkhLW7aPs7WHygVH9-i0fs52UaK9l6icPCJYJeAEkekMkqy_XoPZWz6FD5290eDcEkIRO4qjZbcxMbnE_76tQRZ2ui", "width": 4048}], "place_id": "ChIJF2aw7gqxPIgRldfFdZ9ucHQ", "plus_code": {"compound_code": "75MV+PF Ann Arbor, MI, USA", "global_code": "86JR75MV+PF"}, "price_level": 1, "rating": 4.3, "reference": "ChIJF2aw7gqxPIgRldfFdZ9ucHQ", "scope": "GOOGLE", "types": ["restaurant", "food", "point_of_interest", "establishment"], "user_ratings_total": 251, "vicinity": "3901 Jackson Road, Ann Arbor"}, {"business_status": "OPERATIONAL", "geometry": {"location": {"lat": 42.2830641, "lng": -83.802927}, "viewport": {"northeast": {"lat": 42.28433503029149, "lng": -83.8012010697085}, "southwest": {"lat": 42.28163706970849, "lng": -83.8038990302915}}}, "icon": "https://maps.gstatic.com/mapfiles/place_api/icons/v1/png_71/generic_business-71.png", "icon_background_color": "#7B9EB0", "icon_mask_base_uri": "https://maps.gstatic.com/mapfiles/place_api/icons/v2/generic_pinlet", "name": "HOMES Brewery - Campus", "opening_hours": {"open_now": false}, "photos": [{"height": 3072, "html_attributions": ["<a href=\"https://maps.google.com/maps/contrib/107602587818870934409\">William Mallick</a>"], "photo_reference": "AW30NDw9PPWHcTasMok-91uCbY0pls8apmXTwTZ-13uR9ScEPH7LOGyQWm6dPQuWVIivMHKTnEHwWtwaw9gn_dcPAH-r76aj3ickP8LHZc2RJDZR4AJ_yJS3nf__S3N865qGo5JwHX3joEG7s6z5Ixbz4xC0CQvYAvVpRW4dJkZvH1kaCA4d", "width": 4080}], "place_id": "ChIJbzyp5iexPIgRRA1PaswlXvY", "plus_code": {"compound_code": "75MW+6R Ann Arbor, MI, USA", "global_code": "86JR75MW+6R"}, "rating": 4.8, "reference": "ChIJbzyp5iexPIgRRA1PaswlXvY", "scope": "GOOGLE", "types": ["cafe", "bar", "art_gallery", "restaurant", "food", "store", "point_of_interest", "establishment"], "user_ratings_total": 49, "vicinity": "112 Jackson Plaza, Ann Arbor"}, {"business_status": "OPERATIONAL", "geometry": {"location": {"lat": 42.28308190000001, "lng": -83.8026211}, "viewport": {"northeast": {"lat": 42.28437673029151, "lng": -83.8010674697085}, "southwest": {"lat": 42.28167876970851, "lng": -83.8037654302915}}}, "icon": "https://maps.gstatic.com/mapfiles/place_api/icons/v1/png_71/cafe-71.png", "icon_background_color": "#FF9E67", "icon_mask_base_uri": "https://maps.gstatic.com/mapfiles/place_api/icons/v2/cafe_pinlet", "name": "Dozer Coffee", "opening_hours": {"open_now": true}, "photos": [{"height": 2268, "html_attributions": ["<a href=\"https://maps.google.com/maps/contrib/106363883472497151689\">Youngjun Lee</a>"], "photo_reference": "AW30NDzrszB5eWDEl4DlWJGcn1HT_dgyGIMS9qS98iELa7AUiED6OP73ABBPHD3yDLP98LfrmTVH3gJoQy7ZZ_nLk-NOVbRvBJIrg6aHA7x0szKkiLMEHfZOmzg2x2MtFuaRwqCbMIxlfxfNoo8KcivAo7nayDIkzqblQgpxL7lc2h9mRhaK", "width": 4032}], "place_id": "ChIJVR_IXruxPIgRqQEuyUj1RZY", "plus_code": {"compound_code": "75MW+6X Ann Arbor, MI, USA", "global_code": "86JR75MW+6X"}, "rating": 4.7, "reference": "ChIJVR_IXruxPIgRqQEuyUj1RZY", "scope": "GOOGLE", "types": ["cafe", "bakery", "restaurant", "food", "store", "point_of_interest", "establishment"], "user_ratings_total": 141, "vicinity": "112 Jackson Plaza, Ann Arbor"}, {"business_status": "OPERATIONAL", "geometry": {"location": {"lat": 42.2768481, "lng": -83.80110789999999}, "viewport": {"northeast": {"lat": 42.27796473029151, "lng": -83.7998063697085}, "southwest": {"lat": 42.27526676970851, "lng": -83.80250433029151}}}, "icon": "https://maps.gstatic.com/mapfiles/place_api/icons/v1/png_71/restaurant-71.png", "icon_background_color": "#FF9E67", "icon_mask_base_uri": "https://maps.gstatic.com/mapfiles/place_api/icons/v2/restaurant_pinlet", "name": "Moon-Sky's", "opening_hours": {"open_now": false}, "photos": [{"height": 2297, "html_attributions": ["<a href=\"https://maps.google.com/maps/contrib/111228922784865764480\">Moon-Sky&#39;s</a>"], "photo_reference": "AW30NDwBu-qAjv6nrP0M86zMZLsJZsls21f5OsWtAbcEVzBozCau0kdOp9oSI451jVgG9iBVErN3qxkFX8NAgHEJ7f1KoLAR7Cklc5AkXTmS4eE2vDGNDOUnpBjveRyt5p1wH_qGrh5zFXvJ-otWIFwHBhW2l_RET1NJlKTbJSUvivbBCvTL", "width": 2297}], "place_id": "ChIJ0UNKq5SxPIgRiBL9B9-EF0k", "plus_code": {"compound_code": "75GX+PH Ann Arbor, MI, USA", "global_code": "86JR75GX+PH"}, "rating": 4.9, "reference": "ChIJ0UNKq5SxPIgRiBL9B9-EF0k", "scope": "GOOGLE", "types": ["restaurant", "food", "point_of_interest", "establishment"], "user_ratings_total": 80, "vicinity": "600 South Wagner Road, Ann Arbor"}, {"business_status": "OPERATIONAL", "geometry": {"location": {"lat": 42.2830641, "lng": -83.802927}, "viewport": {"northeast": {"lat": 42.28433503029149, "lng": -83.8012010697085}, "southwest": {"lat": 42.28163706970849, "lng": -83.8038990302915}}}, "icon": "https://maps.gstatic.com/mapfiles/place_api/icons/v1/png_71/generic_business-71.png", "icon_background_color": "#7B9EB0", "icon_mask_base_uri": "https://maps.gstatic.com/mapfiles/place_api/icons/v2/generic_pinlet", "name": "HOMES Brewery - Campus", "opening_hours": {"open_now": false}, "photos": [{"height": 3072, "html_attributions": ["<a href=\"https://maps.google.com/maps/contrib/107602587818870934409\">William Mallick</a>"], "photo_reference": "AW30NDz3M6M1kZbbFVKkXI3fXzcJ8Av_b3bF0CtKj6zTvL5JEy0XFr89w2eZ-loA1sFgDXvpL5qR2AJKQpdve22CDq9EHokYsQzUJjFUZfuLNfLLdCjkso-n6_vZkys5BVv7tjM1Hb72ggOgu723O8-yAUmlOepW-glItQ-fRDpx6JdiNMKi", "width": 4080}], "place_id": "ChIJbzyp5iexPIgRRA1PaswlXvY", "plus_code": {"compound_code": "75MW+6R Ann Arbor, MI, USA", "global_code": "86JR75MW+6R"}, "rating": 4.8, "reference": "ChIJbzyp5iexPIgRRA1PaswlXvY", "scope": "GOOGLE", "types": ["art_gallery", "cafe", "bar", "store", "restaurant", "food", "point_of_interest", "establishment"], "user_ratings_total": 49, "vicinity": "112 Jackson Plaza, Ann Arbor"}, {"business_status": "OPERATIONAL", "geometry": {"location": {"lat": 42.28308190000001, "lng": -83.8026211}, "viewport": {"northeast": {"lat": 42.28437673029151, "lng": -83.8010674697085}, "southwest": {"lat": 42.28167876970851, "lng": -83.8037654302915}}}, "icon": "https://maps.gstatic.com/mapfiles/place_api/icons/v1/png_71/cafe-71.png", "icon_background_color": "#FF9E67", "icon_mask_base_uri": "https://maps.gstatic.com/mapfiles/place_api/icons/v2/cafe_pinlet", "name": "Dozer Coffee", "opening_hours": {"open_now": true}, "photos": [{"height": 2268, "html_attributions": ["<a href=\"https://maps.google.com/maps/contrib/106363883472497151689\">Youngjun Lee</a>"], "photo_reference": "AW30NDzOt-F8q-WIvWJ4x6Q7Cp551si6N9Ev8eoDmoLCKESo6KjEjHHxxvJ3TipCxZyTG2e7nnp1saOXag8DqhYGV9XsFKCieT8OTyCw4LL1gbzIQ6_Tuu9BkntOy-hdiF77EqKKYnIWXFeVe-m5dZpAGFsY6uYlghVPsLpGCo6JhWgyEtuu", "width": 4032}], "place_id": "ChIJVR_IXruxPIgRqQEuyUj1RZY", "plus_code": {"compound_code": "75MW+6X Ann Arbor, MI, USA", "global_code": "86JR75MW+6X"}, "rating": 4.7, "reference": "ChIJVR_IXruxPIgRqQEuyUj1RZY", "scope": "GOOGLE", "types": ["bakery", "cafe", "store", "restaurant", "food", "point_of_interest", "establishment"], "user_ratings_total": 141, "vicinity": "112 Jackson Plaza, Ann Arbor"}, {"business_status": "OPERATIONAL", "geometry": {"location": {"lat": 42.2845816, "lng": -83.7922138}, "viewport": {"northeast": {"lat": 42.28611128029149, "lng": -83.7907249197085}, "southwest": {"lat": 42.2834133197085, "lng": -83.7934228802915}}}, "icon": "https://maps.gstatic.com/mapfiles/place_api/icons/v1/png_71/cafe-71.png", "icon_background_color": "#FF9E67", "icon_mask_base_uri": "https://maps.gstatic.com/mapfiles/place_api/icons/v2/cafe_pinlet", "name": "Weber's Breakfast Bar", "opening_hours": {"open_now": false}, "photos": [{"height": 3024, "html_attributions": ["<a href=\"https://maps.google.com/maps/contrib/114460232504573036356\">Weber&#39;s Breakfast Bar</a>"], "photo_reference": "AW30NDwCaJi2LMCmjBTjBGmQdfqD-D-5DxRE4WsH_JHwxUycpk54v84hQKDQkwmzvQBqkBvYr3xe9Oe-3DzUCwEEe42gRxUWKDcZ8nMNLK9hw4bgN1kGhaJ8t02QrCisV6T-4953f29Zj3tyd69vRmAvsSmhNsXS5CSSuGFuWpbtDhaUOL4O", "width": 4032}], "place_id": "ChIJM2Mwp0-xPIgRsCc599WqKpo", "plus_code": {"compound_code": "76M5+R4 Ann Arbor, MI, USA", "global_code": "86JR76M5+R4"}, "reference": "ChIJM2Mwp0-xPIgRsCc599WqKpo", "scope": "GOOGLE", "types": ["cafe", "meal_takeaway", "bar", "store", "restaurant", "food", "point_of_interest", "establishment"], "vicinity": "3050 Jackson Avenue, Ann Arbor"}, {"business_status": "OPERATIONAL", "geometry": {"location": {"lat": 42.2843551, "lng": -83.7919464}, "viewport": {"northeast": {"lat": 42.2859980302915, "lng": -83.7906510697085}, "southwest": {"lat": 42.2833000697085, "lng": -83.79334903029152}}}, "icon": "https://maps.gstatic.com/mapfiles/place_api/icons/v1/png_71/bar-71.png", "icon_background_color": "#FF9E67", "icon_mask_base_uri": "https://maps.gstatic.com/mapfiles/place_api/icons/v2/bar_pinlet", "name": "The Habitat", "opening_hours": {"open_now": false}, "photos": [{"height": 1237, "html_attributions": ["<a href=\"https://maps.google.com/maps/contrib/111904755477574528077\">The Habitat</a>"], "photo_reference": "AW30NDzDF1zAP4y7HP_8ekkAAvdJUizwDKw376oHWA3g22E_vKLCJ77XDUnhJJLnYALscMHisRbHSOajAGURfnZjAZEzmhRtEAVzFUGvgTG8TJJ3A_6nl-OpnqABs6MWnZ99JkIum94r-rrKxLOPs5gkfBlPc1lSrGR8wpdYlHDcFET8JPNR", "width": 1656}], "place_id": "ChIJz7opFdixPIgRxFHj_byoDUA", "plus_code": {"compound_code": "76M5+P6 Ann Arbor, MI, USA", "global_code": "86JR76M5+P6"}, "rating": 4.6, "reference": "ChIJz7opFdixPIgRxFHj_byoDUA", "scope": "GOOGLE", "types": ["bar", "night_club", "restaurant", "food", "point_of_interest", "establishment"], "user_ratings_total": 75, "vicinity": "3050 Jackson Road, Ann Arbor"}, {"business_status": "OPERATIONAL", "geometry": {"location": {"lat": 42.2835957, "lng": -83.7905541}, "viewport": {"northeast": {"lat": 42.2848826802915, "lng": -83.78923706970849}, "southwest": {"lat": 42.2821847197085, "lng": -83.7919350302915}}}, "icon": "https://maps.gstatic.com/mapfiles/place_api/icons/v1/png_71/restaurant-71.png", "icon_background_color": "#FF9E67", "icon_mask_base_uri": "https://maps.gstatic.com/mapfiles/place_api/icons/v2/restaurant_pinlet", "name": "Weber's Restaurant", "opening_hours": {"open_now": true}, "photos": [{"height": 1365, "html_attributions": ["<a href=\"https://maps.google.com/maps/contrib/110092821174250807784\">Weber&#39;s Restaurant</a>"], "photo_reference": "AW30NDyWN6QVOuPmus-hLck_VMuh3l-T964CzEkJuaVlBkXrvgTNt2inw-AR28puC5bRQwnFh-42SvuxtwHF5sRo-vtmE7iLzzHOWzgSO4oDNM7kalQLCdeEkJ5fLNgQ9FBTvLR1x8-cOC2EoOWfMQw-qtuQ4saxJmQujvPKdUT9p2pVmOLE", "width": 2048}], "place_id": "ChIJFTormjWxPIgRupf1j5cet8o", "plus_code": {"compound_code": "76M5+CQ Ann Arbor, MI, USA", "global_code": "86JR76M5+CQ"}, "price_level": 2, "rating": 4.4, "reference": "ChIJFTormjWxPIgRupf1j5cet8o", "scope": "GOOGLE", "types": ["restaurant", "night_club", "bar", "food", "point_of_interest", "establishment"], "user_ratings_total": 504, "vicinity": "3050 Jackson Road, Ann Arbor"}, {"business_status": "OPERATIONAL", "geometry": {"location": {"lat": 42.2823664, "lng": -83.7878087}, "viewport": {"northeast": {"lat": 42.2837652302915, "lng": -83.78646451970849}, "southwest": {"lat": 42.2810672697085, "lng": -83.78916248029151}}}, "icon": "https://maps.gstatic.com/mapfiles/place_api/icons/v1/png_71/cafe-71.png", "icon_background_color": "#FF9E67", "icon_mask_base_uri": "https://maps.gstatic.com/mapfiles/place_api/icons/v2/cafe_pinlet", "name": "19 Drips Coffee and Tea", "opening_hours": {"open_now": true}, "photos": [{"height": 4032, "html_attributions": ["<a href=\"https://maps.google.com/maps/contrib/104547736854244122427\">Darlene Perrine</a>"], "photo_reference": "AW30NDwqlBNGGqd7uqkH8od3XzAMIkHcS_OSRxKGFCFlaiuMiB34k0uf6i-tGtQDnIe2YKAs2GNSA2P63hl_t5GLWs6kw-ereVtvCA-7zL1-WVfC1Y-SCtNWpkfiGIqlAx_GhS_Kc1gu3ZRhXnxWJJpApEdr9WRVEX_ibvaBHgG4rnIvjeS3", "width": 3024}], "place_id": "ChIJf2xyQKWxPIgROi7JT9q0gEE", "plus_code": {"compound_code": "76J6+WV Ann Arbor, MI, USA", "global_code": "86JR76J6+WV"}, "rating": 4.7, "reference": "ChIJf2xyQKWxPIgROi7JT9q0gEE", "scope": "GOOGLE", "types": ["cafe", "store", "restaurant", "food", "point_of_interest", "establishment"], "user_ratings_total": 26, "vicinity": "2891 Jackson Avenue, Ann Arbor"}, {"business_status": "OPERATIONAL", "geometry": {"location": {"lat": 42.2768481, "lng": -83.80110789999999}, "viewport": {"northeast": {"lat": 42.27796473029151, "lng": -83.7998063697085}, "southwest": {"lat": 42.27526676970851, "lng": -83.80250433029151}}}, "icon": "https://maps.gstatic.com/mapfiles/place_api/icons/v1/png_71/restaurant-71.png", "icon_background_color": "#FF9E67", "icon_mask_base_uri": "https://maps.gstatic.com/mapfiles/place_api/icons/v2/restaurant_pinlet", "name": "Moon-Sky's", "opening_hours": {"open_now": false}, "photos": [{"height": 2297, "html_attributions": ["<a href=\"https://maps.google.com/maps/contrib/111228922784865764480\">Moon-Sky&#39;s</a>"], "photo_reference": "AW30NDwxZOx0lyUQJsVOyARLHs1ksKh1ZTlX2akorYTd1tLaUCa8_Sfv1cn-kTn91pt08rwQMgp0B0HGk6MhdjV2xuLSv5xn4ArLYCjs9fYFVe7JPyk-1wBiOx_Nw0ktLOAGGZG4DRV0SOW9IcL7eteCbLHGgCtJ46WOquGONiy-FmqPaA2w", "width": 2297}], "place_id": "ChIJ0UNKq5SxPIgRiBL9B9-EF0k", "plus_code": {"compound_code": "75GX+PH Ann Arbor, MI, USA", "global_code": "86JR75GX+PH"}, "rating": 4.9, "reference": "ChIJ0UNKq5SxPIgRiBL9B9-EF0k", "scope": "GOOGLE", "types": ["restaurant", "food", "point_of_interest", "establishment"], "user_ratings_total": 80, "vicinity": "600 South Wagner Road, Ann Arbor"}, {"business_status": "OPERATIONAL", "geometry": {"location": {"lat": 42.2835957, "lng": -83.7905541}, "viewport": {"northeast": {"lat": 42.2848826802915, "lng": -83.78923706970849}, "southwest": {"lat": 42.2821847197085, "lng": -83.7919350302915}}}, "icon": "https://maps.gstatic.com/mapfiles/place_api/icons/v1/png_71/restaurant-71.png", "icon_background_color": "#FF9E67", "icon_mask_base_uri": "https://maps.gstatic.com/mapfiles/place_api/icons/v2/restaurant_pinlet", "name": "Weber's Restaurant", "opening_hours": {"open_now": true}, "photos": [{"height": 1365, "html_attributions": ["<a href=\"https://maps.google.com/maps/contrib/110092821174250807784\">Weber&#39;s Restaurant</a>"], "photo_reference": "AW30NDwYZIx_cdMlLKbVmK_Kb6dIWYHqWi2itKjy95IHDSgvKkvnyxQ6JvP2XCCtu42ZTJV3I4RszRkQS1mT_rrDsN5wdYsKTtlu_mRMrqleXNWOdAHdoEHz1W5WZgVn5oQ_DT3ykYC6BU1YCJRy_RbJBLPMBY9nEIqOTaT3cSZPw14aapTu", "width": 2048}], "place_id": "ChIJFTormjWxPIgRupf1j5cet8o", "plus_code": {"compound_code": "76M5+CQ Ann Arbor, MI, USA", "global_code": "86JR76M5+CQ"}, "price_level": 2, "rating": 4.4, "reference": "ChIJFTormjWxPIgRupf1j5cet8o", "scope": "GOOGLE", "types": ["restaurant", "food", "night_club", "bar", "point_of_interest", "establishment"], "user_ratings_total": 504, "vicinity": "3050 Jackson Road, Ann Arbor"}, {"business_status": "OPERATIONAL", "geometry": {"location": {"lat": 42.2823664, "lng": -83.7878087}, "viewport": {"northeast": {"lat": 42.2837652302915, "lng": -83.78646451970849}, "southwest": {"lat": 42.2810672697085, "lng": -83.78916248029151}}}, "icon": "https://maps.gstatic.com/mapfiles/place_api/icons/v1/png_71/cafe-71.png", "icon_background_color": "#FF9E67", "icon_mask_base_uri": "https://maps.gstatic.com/mapfiles/place_api/icons/v2/cafe_pinlet", "name": "19 Drips Coffee and Tea", "opening_hours": {"open_now": true}, "photos": [{"height": 4032, "html_attributions": ["<a href=\"https://maps.google.com/maps/contrib/104547736854244122427\">Darlene Perrine</a>"], "photo_reference": "AW30NDzOhK_DU3unSL4LaCeOaP6b4Krb70f2EOqw38wRsHLXbrfGwIJ0RJrfWb0B3K1gLkFVmG4ZX5zK4kBXdEuFd7dU6HNmOsNr1Q6fcuRjsdztP5QfIO9hBj0S26epWvbyOTBYXK4u2KbZP9fQC9GRa3wDicNI6ov88x0MSAyX8xyK_bQs", "width": 3024}], "place_id": "ChIJf2xyQKWxPIgROi7JT9q0gEE", "plus_code": {"compound_code": "76J6+WV Ann Arbor, MI, USA", "global_code": "86JR76J6+WV"}, "rating": 4.7, "reference": "ChIJf2xyQKWxPIgROi7JT9q0gEE", "scope": "GOOGLE", "types": ["cafe", "restaurant", "food", "point_of_interest", "store", "establishment"], "user_ratings_total": 26, "vicinity": "2891 Jackson Avenue, Ann Arbor"}, {"business_status": "OPERATIONAL", "geometry": {"location": {"lat": 42.295551, "lng": -83.78014499999999}, "viewport": {"northeast": {"lat": 42.2968541802915, "lng": -83.7788031197085}, "southwest": {"lat": 42.2941562197085, "lng": -83.7815010802915}}}, "icon": "https://maps.gstatic.com/mapfiles/place_api/icons/v1/png_71/restaurant-71.png", "icon_background_color": "#FF9E67", "icon_mask_base_uri": "https://maps.gstatic.com/mapfiles/place_api/icons/v2/restaurant_pinlet", "name": "El Harissa Market Cafe", "opening_hours": {"open_now": true}, "photos": [{"height": 720, "html_attributions": ["<a href=\"https://maps.google.com/maps/contrib/104431169449935337710\">El Harissa Market Cafe</a>"], "photo_reference": "AW30NDzlwePnB8IFR98Jp1y1n3Hr7BuX0NlB3lKMJ8TEYT3I0F8VcTfAQIl1co1E5HbGP9FwJ1-DNyg7E1Fo3Tf1_UlV3k63fz5JfYv4zndqkUtWV2PPNgiwJArC0Mys-GbSA73Sl_6_31SRHIPPc3FzIz0xdvuB2YqbPLxXG7EbYRHRFL5M", "width": 960}], "place_id": "ChIJQR-OX_KxPIgRMAY4MBL1v8Q", "plus_code": {"compound_code": "76W9+6W Ann Arbor, MI, USA", "global_code": "86JR76W9+6W"}, "price_level": 2, "rating": 4.9, "reference": "ChIJQR-OX_KxPIgRMAY4MBL1v8Q", "scope": "GOOGLE", "types": ["cafe", "restaurant", "point_of_interest", "food", "establishment"], "user_ratings_total": 394, "vicinity": "1516 North Maple Road, Ann Arbor"}, {"business_status": "OPERATIONAL", "geometry": {"location": {"lat": 42.295567, "lng": -83.7803861}, "viewport": {"northeast": {"lat": 42.2968583802915, "lng": -83.7790672197085}, "southwest": {"lat": 42.2941604197085, "lng": -83.78176518029152}}}, "icon": "https://maps.gstatic.com/mapfiles/place_api/icons/v1/png_71/restaurant-71.png", "icon_background_color": "#FF9E67", "icon_mask_base_uri": "https://maps.gstatic.com/mapfiles/place_api/icons/v2/restaurant_pinlet", "name": "Anthony's Gourmet Pizza", "opening_hours": {"open_now": true}, "photos": [{"height": 2324, "html_attributions": ["<a href=\"https://maps.google.com/maps/contrib/109238237372085291350\">Amanda Means</a>"], "photo_reference": "AW30NDxzAJq-HMcvborMph5TKlmzivrQVM4yBPWIKB0h7m6N7D7yNhIjULoCLS6sGo28GTIko8PVgH6w2WZwMUB7czOfwFECKpJaMbYcsMQndyOoQ_MAYrv64BRQ7oFVCackbvdfOhlt37PFObAZ4T3luhCf235YS-9jCpwVLBtVejsEzB_q", "width": 3857}], "place_id": "ChIJsZ_EYvKxPIgRoCd0SXzrPzI", "plus_code": {"compound_code": "76W9+6R Ann Arbor, MI, USA", "global_code": "86JR76W9+6R"}, "price_level": 2, "rating": 4.4, "reference": "ChIJsZ_EYvKxPIgRoCd0SXzrPzI", "scope": "GOOGLE", "types": ["restaurant", "point_of_interest", "food", "establishment"], "user_ratings_total": 213, "vicinity": "1508 North Maple Road, Ann Arbor"}, {"business_status": "CLOSED_TEMPORARILY", "geometry": {"location": {"lat": 42.2945762, "lng": -83.7812967}, "viewport": {"northeast": {"lat": 42.2960561302915, "lng": -83.7798211697085}, "southwest": {"lat": 42.2933581697085, "lng": -83.7825191302915}}}, "icon": "https://maps.gstatic.com/mapfiles/place_api/icons/v1/png_71/restaurant-71.png", "icon_background_color": "#FF9E67", "icon_mask_base_uri": "https://maps.gstatic.com/mapfiles/place_api/icons/v2/restaurant_pinlet", "name": "Subway", "permanently_closed": true, "photos": [{"height": 4032, "html_attributions": ["<a href=\"https://maps.google.com/maps/contrib/105123841857283896550\">WhackedMaki</a>"], "photo_reference": "AW30NDzrbzhc08LCVjPv2m-N7IcfU7J-ywXOXlY86wjhwMQHRi8s9rkXgg_HAYaf4XK1pLLe1gvhmLTgkTFmaOcC5fcVjTuKsDQ2st1AO3SfLD5WmUL_19n89TJCCfS8X1fMozWaSilaYAq4Khm5ZUr5i93MN0rk2Fgbvrc4vFaqGjztVEqQ", "width": 3024}], "place_id": "ChIJqXClf_KxPIgRLJ1_9hrAy8Y", "plus_code": {"compound_code": "76V9+RF Ann Arbor, MI, USA", "global_code": "86JR76V9+RF"}, "price_level": 1, "rating": 3.8, "reference": "ChIJqXClf_KxPIgRLJ1_9hrAy8Y", "scope": "GOOGLE", "types": ["meal_takeaway", "restaurant", "point_of_interest", "food", "establishment"], "user_ratings_total": 99, "vicinity": "1251 North Maple Road Suite 2, Ann Arbor"}, {"business_status": "OPERATIONAL", "geometry": {"location": {"lat": 42.2955976, "lng": -83.7804298}, "viewport": {"northeast": {"lat": 42.2968739302915, "lng": -83.77907726970848}, "southwest": {"lat": 42.2941759697085, "lng": -83.7817752302915}}}, "icon": "https://maps.gstatic.com/mapfiles/place_api/icons/v1/png_71/restaurant-71.png", "icon_background_color": "#FF9E67", "icon_mask_base_uri": "https://maps.gstatic.com/mapfiles/place_api/icons/v2/restaurant_pinlet", "name": "Juicy Kitchen", "opening_hours": {"open_now": true}, "photos": [{"height": 3024, "html_attributions": ["<a href=\"https://maps.google.com/maps/contrib/117150546200924555497\">shreyas kulkarni</a>"], "photo_reference": "AW30NDzBvNqogjmVQqh_cTPOJ3Yf6jeDnoW7FyBdsBXkicZlOhduFEynzs3YDSzsYM9NpkhjU9xGB6otSQZJ_bhykATUdGDQCdAfj96HCAD48hHmSIZ20EpLk0OiMEDwqSmOEqgYfilfeZAdTvvisCZT93IWw1UwKbY9QKyEOhiPKIrTi4pb", "width": 4032}], "place_id": "ChIJh84dXfKxPIgR9p7oL_JIOl4", "plus_code": {"compound_code": "76W9+6R Ann Arbor, MI, USA", "global_code": "86JR76W9+6R"}, "price_level": 2, "rating": 4.7, "reference": "ChIJh84dXfKxPIgR9p7oL_JIOl4", "scope": "GOOGLE", "types": ["cafe", "restaurant", "point_of_interest", "food", "establishment"], "user_ratings_total": 441, "vicinity": "1506 North Maple Road, Ann Arbor"}, {"business_status": "CLOSED_TEMPORARILY", "geometry": {"location": {"lat": 42.2945762, "lng": -83.7812967}, "viewport": {"northeast": {"lat": 42.2960561302915, "lng": -83.7798211697085}, "southwest": {"lat": 42.2933581697085, "lng": -83.7825191302915}}}, "icon": "https://maps.gstatic.com/mapfiles/place_api/icons/v1/png_71/restaurant-71.png", "icon_background_color": "#FF9E67", "icon_mask_base_uri": "https://maps.gstatic.com/mapfiles/place_api/icons/v2/restaurant_pinlet", "name": "Subway", "permanently_closed": true, "photos": [{"height": 4032, "html_attributions": ["<a href=\"https://maps.google.com/maps/contrib/105123841857283896550\">WhackedMaki</a>"], "photo_reference": "AW30NDyV62segF3vztbv56TeNUR1htyFh1mOUlTufWO1osS2ZxsIpaS1Lh0uA002Ez_yyjoPwWSpFvrnNRI8vD14YFfqmIF-3WAYMtcgxK-_G4PkQtrRGRKf5otfDhbAtsm9cOMH9-tfs_U4SQtYPHtvSY2Q5QMYECNS4lRW1lagUv0VpKdU", "width": 3024}], "place_id": "ChIJqXClf_KxPIgRLJ1_9hrAy8Y", "plus_code": {"compound_code": "76V9+RF Ann Arbor, MI, USA", "global_code": "86JR76V9+RF"}, "price_level": 1, "rating": 3.8, "reference": "ChIJqXClf_KxPIgRLJ1_9hrAy8Y", "scope": "GOOGLE", "types": ["meal_takeaway", "restaurant", "food", "point_of_interest", "establishment"], "user_ratings_total": 99, "vicinity": "1251 North Maple Road Suite 2, Ann Arbor"}, {"business_status": "OPERATIONAL", "geometry": {"location": {"lat": 42.295551, "lng": -83.78014499999999}, "viewport": {"northeast": {"lat": 42.2968541802915, "lng": -83.7788031197085}, "southwest": {"lat": 42.2941562197085, "lng": -83.7815010802915}}}, "icon": "https://maps.gstatic.com/mapfiles/place_api/icons/v1/png_71/restaurant-71.png", "icon_background_color": "#FF9E67", "icon_mask_base_uri": "https://maps.gstatic.com/mapfiles/place_api/icons/v2/restaurant_pinlet", "name": "El Harissa Market Cafe", "opening_hours": {"open_now": true}, "photos": [{"height": 720, "html_attributions": ["<a href=\"https://maps.google.com/maps/contrib/104431169449935337710\">El Harissa Market Cafe</a>"], "photo_reference": "AW30NDxjHx9if3uEAjmtxRSUbrKIdQT8lcA7_jUNyOmWgW7J9oQyJICmWMzBznDJz8NVgM0D1couJMnrhe_TO9GuYcENAbZqNa0kUUIltBn6acMLkOyQml6CnvOrpufw7sqWm4ORakwRGTM5M6RoWD9dNSE-rR4zvpLxYXdToRMkNo8zy4Cf", "width": 960}], "place_id": "ChIJQR-OX_KxPIgRMAY4MBL1v8Q", "plus_code": {"compound_code": "76W9+6W Ann Arbor, MI, USA", "global_code": "86JR76W9+6W"}, "price_level": 2, "rating": 4.9, "reference": "ChIJQR-OX_KxPIgRMAY4MBL1v8Q", "scope": "GOOGLE", "types": ["cafe", "restaurant", "food", "point_of_interest", "establishment"], "user_ratings_total": 394, "vicinity": "1516 North Maple Road, Ann Arbor"}, {"business_status": "OPERATIONAL", "geometry": {"location": {"lat": 42.295567, "lng": -83.7803861}, "viewport": {"northeast": {"lat": 42.2968583802915, "lng": -83.7790672197085}, "southwest": {"lat": 42.2941604197085, "lng": -83.78176518029152}}}, "icon": "https://maps.gstatic.com/mapfiles/place_api/icons/v1/png_71/restaurant-71.png", "icon_background_color": "#FF9E67", "icon_mask_base_uri": "https://maps.gstatic.com/mapfiles/place_api/icons/v2/restaurant_pinlet", "name": "Anthony's Gourmet Pizza", "opening_hours": {"open_now": true}, "photos": [{"height": 2324, "html_attributions": ["<a href=\"https://maps.google.com/maps/contrib/109238237372085291350\">Amanda Means</a>"], "photo_reference": "AW30NDyATixz_4m8P9bSjUwXsxbvoDIRf5tw3Gk-MJIENdHi061-kpGE7OpIzwRiidkCx1qb_ZcOH3v0wCycX-garEnVgAsR30g9tfLq6l4C1qvFg31MsQkq-JRDMaoEbcMHSZtuTKFVhqv4fh9H60MB6VMCAfmHMIoClrnCU1RuBO8Mcw9W", "width": 3857}], "place_id": "ChIJsZ_EYvKxPIgRoCd0SXzrPzI", "plus_code": {"compound_code": "76W9+6R Ann Arbor, MI, USA", "global_code": "86JR76W9+6R"}, "price_level": 2, "rating": 4.4, "reference": "ChIJsZ_EYvKxPIgRoCd0SXzrPzI", "scope": "GOOGLE", "types": ["restaurant", "food", "point_of_interest", "establishment"], "user_ratings_total": 213, "vicinity": "1508 North Maple Road, Ann Arbor"}, {"business_status": "OPERATIONAL", "geometry": {"location": {"lat": 42.2955976, "lng": -83.7804298}, "viewport": {"northeast": {"lat": 42.2968739302915, "lng": -83.77907726970848}, "southwest": {"lat": 42.2941759697085, "lng": -83.7817752302915}}}, "icon": "https://maps.gstatic.com/mapfiles/place_api/icons/v1/png_71/restaurant-71.png", "icon_background_color": "#FF9E67", "icon_mask_base_uri": "https://maps.gstatic.com/mapfiles/place_api/icons/v2/restaurant_pinlet", "name": "Juicy Kitchen", "opening_hours": {"open_now": true}, "photos": [{"height": 3024, "html_attributions": ["<a href=\"https://maps.google.com/maps/contrib/117150546200924555497\">shreyas kulkarni</a>"], "photo_reference": "AW30NDznvSk6OxOYR3xXHrJFnmpJ-rmSyxcG5Zo3m93RPBTGH7XJ4unErAR-3CEb5dnO5jUnonuMwUXcp547ghpLlTmgXU_fFqUzqwOmbPs2XCre7djMhndvL-t27lioWEDF0UwmarLFGyKnnd7rJ9QBTecQDsZlsnY8ZAZWlHBsk1J4eZQ6", "width": 4032}], "place_id": "ChIJh84dXfKxPIgR9p7oL_JIOl4", "plus_code": {"compound_code": "76W9+6R Ann Arbor, MI, USA", "global_code": "86JR76W9+6R"}, "price_level": 2, "rating": 4.7, "reference": "ChIJh84dXfKxPIgR9p7oL_JIOl4", "scope": "GOOGLE", "types": ["cafe", "restaurant", "food", "point_of_interest", "establishment"], "user_ratings_total": 441, "vicinity": "1506 North Maple Road, Ann Arbor"}, {"business_status": "OPERATIONAL", "geometry": {"location": {"lat": 42.2799861, "lng": -83.7809722}, "viewport": {"northeast": {"lat": 42.2814163802915, "lng": -83.77968021970848}, "southwest": {"lat": 42.2787184197085, "lng": -83.78237818029149}}}, "icon": "https://maps.gstatic.com/mapfiles/place_api/icons/v1/png_71/restaurant-71.png", "icon_background_color": "#FF9E67", "icon_mask_base_uri": "https://maps.gstatic.com/mapfiles/place_api/icons/v2/restaurant_pinlet", "name": "Zingerman's Roadhouse", "opening_hours": {"open_now": true}, "photos": [{"height": 6656, "html_attributions": ["<a href=\"https://maps.google.com/maps/contrib/108725899343504053624\">Zingerman&#39;s Roadhouse</a>"], "photo_reference": "AW30NDyolR_2xwnjq5XqoE55dr6qOOFIO1r50Q-mZtcwgEblBQEqYODFmLpzbBh2ieDhObwJgGKxDYXxzrjzZEhW4JhfKn1F4zKmy7QOaMjNdKAMUfIBgW9oIqNNC9y0Uh8Wa9hEoTnO_fjtSyFcI5yi7be7_DuyKXPOtfJYofFzcKhRxKXw", "width": 13312}], "place_id": "ChIJTQuF4cCxPIgR6H_8jbqyg88", "plus_code": {"compound_code": "76H9+XJ Ann Arbor, MI, USA", "global_code": "86JR76H9+XJ"}, "price_level": 3, "rating": 4.4, "reference": "ChIJTQuF4cCxPIgR6H_8jbqyg88", "scope": "GOOGLE", "types": ["bar", "meal_takeaway", "cafe", "store", "restaurant", "food", "point_of_interest", "establishment"], "user_ratings_total": 4023, "vicinity": "2501 Jackson Avenue, Ann Arbor"}, {"business_status": "OPERATIONAL", "geometry": {"location": {"lat": 42.284873, "lng": -83.781549}, "viewport": {"northeast": {"lat": 42.2860907302915, "lng": -83.7801982197085}, "southwest": {"lat": 42.2833927697085, "lng": -83.7828961802915}}}, "icon": "https://maps.gstatic.com/mapfiles/place_api/icons/v1/png_71/shopping-71.png", "icon_background_color": "#4B96F3", "icon_mask_base_uri": "https://maps.gstatic.com/mapfiles/place_api/icons/v2/shoppingcart_pinlet", "name": "Plum Market", "opening_hours": {"open_now": true}, "photos": [{"height": 3168, "html_attributions": ["<a href=\"https://maps.google.com/maps/contrib/107179924492646649329\">Plum Market</a>"], "photo_reference": "AW30NDxLBpMmnHwCNtiDsBcW5w1yzVbFgVItcvcB384WbgvAtlEzo4MekLExiXD393iCt75vnHjSMBxFwI9j4ULYUHvzIVtPJRuimnbzuNwfNntILyrysYEruC1FM-b5450siX_tQjSOGL9472-hAqjcPMfD57LYlOUrHdt_FoFdUQL_ETa1", "width": 4752}], "place_id": "ChIJPzAHz8GxPIgRSn4tGRGI-PE", "plus_code": {"compound_code": "76M9+W9 Ann Arbor, MI, USA", "global_code": "86JR76M9+W9"}, "rating": 4.4, "reference": "ChIJPzAHz8GxPIgRSn4tGRGI-PE", "scope": "GOOGLE", "types": ["grocery_or_supermarket", "liquor_store", "supermarket", "health", "store", "restaurant", "food", "point_of_interest", "establishment"], "user_ratings_total": 940, "vicinity": "375 North Maple Road, Ann Arbor"}, {"business_status": "OPERATIONAL", "geometry": {"location": {"lat": 42.28496759999999, "lng": -83.7781449}, "viewport": {"northeast": {"lat": 42.2862549802915, "lng": -83.7769246197085}, "southwest": {"lat": 42.2835570197085, "lng": -83.7796225802915}}}, "icon": "https://maps.gstatic.com/mapfiles/place_api/icons/v1/png_71/restaurant-71.png", "icon_background_color": "#FF9E67", "icon_mask_base_uri": "https://maps.gstatic.com/mapfiles/place_api/icons/v2/restaurant_pinlet", "name": "Knight's Steakhouse", "opening_hours": {"open_now": true}, "photos": [{"height": 3024, "html_attributions": ["<a href=\"https://maps.google.com/maps/contrib/113096956964972560872\">Rob Sandusky</a>"], "photo_reference": "AW30NDxvpKqNUaDzCv3AEmoKR5fnViQn31qQ4kRczefVwoVbFHvQLzi4HBf7HJpzKg1iJSoTHey8UvimuWlk-4yHcNaxXTpoSXzbzfs0B_vW9x80SBWa0C9X2jxLsf2rZBJWFn3tGRp_LR6g2hc3pmmiy4DAIYCkSnk_4WcvRtQ_cQq8I7kg", "width": 4032}], "place_id": "ChIJdcsH-OmxPIgRfXkIKrGHszw", "plus_code": {"compound_code": "76MC+XP Ann Arbor, MI, USA", "global_code": "86JR76MC+XP"}, "price_level": 2, "rating": 4.6, "reference": "ChIJdcsH-OmxPIgRfXkIKrGHszw", "scope": "GOOGLE", "types": ["restaurant", "food", "point_of_interest", "establishment"], "user_ratings_total": 1717, "vicinity": "2324 Dexter Avenue, Ann Arbor"}, {"business_status": "OPERATIONAL", "geometry": {"location": {"lat": 42.2802709, "lng": -83.7784623}, "viewport": {"northeast": {"lat": 42.28152548029149, "lng": -83.77709541970849}, "southwest": {"lat": 42.27882751970849, "lng": -83.7797933802915}}}, "icon": "https://maps.gstatic.com/mapfiles/place_api/icons/v1/png_71/generic_business-71.png", "icon_background_color": "#7B9EB0", "icon_mask_base_uri": "https://maps.gstatic.com/mapfiles/place_api/icons/v2/generic_pinlet", "name": "HOMES Brewery - Brewpub", "opening_hours": {"open_now": false}, "photos": [{"height": 638, "html_attributions": ["<a href=\"https://maps.google.com/maps/contrib/102597857118804136512\">HOMES Brewery - Brewpub</a>"], "photo_reference": "AW30NDxtqB0LiBRxsMcYNgpzL6__4N1PJYueoGRFm4LJfNrm-EqQG7miiqSRcjRKj9ste_iLvSvK-QIDof2-SFFky7jleyq1XLV73d9i8HDzMInfg9vZe_DpInOcsXDq7mET5E29yJuu9iw50TKeq7ubkhkkaI7AG2Q5r5S-Fp3qscp4xd9W", "width": 960}], "place_id": "ChIJqxrHWMGxPIgRphIuLw6I2d0", "plus_code": {"compound_code": "76JC+4J Ann Arbor, MI, USA", "global_code": "86JR76JC+4J"}, "rating": 4.7, "reference": "ChIJqxrHWMGxPIgRphIuLw6I2d0", "scope": "GOOGLE", "types": ["bar", "restaurant", "food", "point_of_interest", "establishment"], "user_ratings_total": 887, "vicinity": "2321 Jackson Avenue, Ann Arbor"}, {"business_status": "OPERATIONAL", "geometry": {"location": {"lat": 42.2798012, "lng": -83.7828317}, "viewport": {"northeast": {"lat": 42.2811724802915, "lng": -83.7813167197085}, "southwest": {"lat": 42.2784745197085, "lng": -83.7840146802915}}}, "icon": "https://maps.gstatic.com/mapfiles/place_api/icons/v1/png_71/restaurant-71.png", "icon_background_color": "#FF9E67", "icon_mask_base_uri": "https://maps.gstatic.com/mapfiles/place_api/icons/v2/restaurant_pinlet", "name": "Jersey Mike's Subs", "opening_hours": {"open_now": true}, "photos": [{"height": 3000, "html_attributions": ["<a href=\"https://maps.google.com/maps/contrib/107749847104334115760\">Jersey Mike&#39;s Subs</a>"], "photo_reference": "AW30NDwraaVK_YhNcYUifbPpfgmLMNvqgW7Zz90TkbrL91eGAOGljNzMmXlcM7UpfTdDyZpf1jqDRLJWKYWU4Wcm8o8aIU7vEPMktQaLQJJJWf_ZEuPrN3PR-oKpmkW_IW21PsmBPsLzvT72mEYByorXxy8v9QcKhdKot59KcCgGAwK-lkJd", "width": 2000}], "place_id": "ChIJi4wZlMCxPIgRKiijr1dEFFc", "plus_code": {"compound_code": "76H8+WV Ann Arbor, MI, USA", "global_code": "86JR76H8+WV"}, "price_level": 1, "rating": 4.3, "reference": "ChIJi4wZlMCxPIgRKiijr1dEFFc", "scope": "GOOGLE", "types": ["meal_takeaway", "store", "restaurant", "food", "point_of_interest", "establishment"], "user_ratings_total": 278, "vicinity": "2561 Jackson Avenue, Ann Arbor"}, {"business_status": "OPERATIONAL", "geometry": {"location": {"lat": 42.2796749, "lng": -83.7827343}, "viewport": {"northeast": {"lat": 42.2810339802915, "lng": -83.78126431970851}, "southwest": {"lat": 42.2783360197085, "lng": -83.78396228029152}}}, "icon": "https://maps.gstatic.com/mapfiles/place_api/icons/v1/png_71/restaurant-71.png", "icon_background_color": "#FF9E67", "icon_mask_base_uri": "https://maps.gstatic.com/mapfiles/place_api/icons/v2/restaurant_pinlet", "name": "Seva Ann Arbor", "opening_hours": {"open_now": true}, "photos": [{"height": 1155, "html_attributions": ["<a href=\"https://maps.google.com/maps/contrib/110224595674234776758\">Seva Ann Arbor</a>"], "photo_reference": "AW30NDyIn369OhhTefNRVsg2_6Q9734Ya5LKs3igNZ3Izbh1bUA76sYB-WiwLN3waJUVkr71YzOPfrw89nduGAWhm8bLNL5zauJ83h5xAsz2PcwpdeRF0gk8rK-nk0vWpqnAyBLQ4Nw99BQVyfHZG-lrpMY5ceP8Xiq9WZEXHfBwli-Z4AjU", "width": 2048}], "place_id": "ChIJP-Hykj6uPIgRAiEHUHhsJC0", "plus_code": {"compound_code": "76H8+VW Ann Arbor, MI, USA", "global_code": "86JR76H8+VW"}, "price_level": 2, "rating": 4.5, "reference": "ChIJP-Hykj6uPIgRAiEHUHhsJC0", "scope": "GOOGLE", "types": ["bar", "restaurant", "food", "point_of_interest", "establishment"], "user_ratings_total": 973, "vicinity": "Westgate Shopping Center, 2541 Jackson Avenue, Ann Arbor"}, {"business_status": "OPERATIONAL", "geometry": {"location": {"lat": 42.2853696, "lng": -83.7809685}, "viewport": {"northeast": {"lat": 42.2867872302915, "lng": -83.77955891970849}, "southwest": {"lat": 42.2840892697085, "lng": -83.7822568802915}}}, "icon": "https://maps.gstatic.com/mapfiles/place_api/icons/v1/png_71/shopping-71.png", "icon_background_color": "#4B96F3", "icon_mask_base_uri": "https://maps.gstatic.com/mapfiles/place_api/icons/v2/shopping_pinlet", "name": "Ahmo's Gyros & Deli", "opening_hours": {"open_now": true}, "photos": [{"height": 3456, "html_attributions": ["<a href=\"https://maps.google.com/maps/contrib/105949784425107265262\">Ahmo&#39;s Gyros &amp; Deli - Dexter Road</a>"], "photo_reference": "AW30NDy8vQ6TSv3LMj8qOrj-AE3FCRYLQkVWPiD-SLuxY8f4VzAE6UEPuUZVM7qKZ2XYghPC8DJd1lzG_mk7PFUUI7SDVdFKbvtmclaWYelKJ2rsx5-wpP9n61PgEaaLlPKGpRzEMO-M7BObMRQNfyLYmcF4P0SECBui3w3rXg0SQDeEd5jm", "width": 5184}], "place_id": "ChIJP3P4C5yxPIgR09M1SEhKBXE", "plus_code": {"compound_code": "76P9+4J Ann Arbor, MI, USA", "global_code": "86JR76P9+4J"}, "price_level": 1, "rating": 4.4, "reference": "ChIJP3P4C5yxPIgR09M1SEhKBXE", "scope": "GOOGLE", "types": ["store", "restaurant", "food", "point_of_interest", "establishment"], "user_ratings_total": 305, "vicinity": "2505 Dexter Ann Arbor Road, Ann Arbor"}, {"business_status": "OPERATIONAL", "geometry": {"location": {"lat": 42.2840913, "lng": -83.7814003}, "viewport": {"northeast": {"lat": 42.2853775802915, "lng": -83.78005571970849}, "southwest": {"lat": 42.2826796197085, "lng": -83.7827536802915}}}, "icon": "https://maps.gstatic.com/mapfiles/place_api/icons/v1/png_71/restaurant-71.png", "icon_background_color": "#FF9E67", "icon_mask_base_uri": "https://maps.gstatic.com/mapfiles/place_api/icons/v2/restaurant_pinlet", "name": "Village Kitchen of Ann Arbor", "opening_hours": {"open_now": true}, "photos": [{"height": 3072, "html_attributions": ["<a href=\"https://maps.google.com/maps/contrib/107464512327814976093\">Erik Smoot</a>"], "photo_reference": "AW30NDyAkiYXplPSXI46nMqnwAbEa9yt3ie2ugpa2We98lfl8tfuqeckrU8PsyFZTz2Noi2mbHn3_Wmzq0W0QuhPlIwZtKxdHB7YX5KBDV_rHBCnzP8PUjFUIcPt0dEi_C-ofWFj5w0KqoLAGx7cVPZEYC7B8fiWd11Pz1-Ne0AfFDL_Ygpt", "width": 4096}], "place_id": "ChIJ0wfDsMGxPIgRgLJ4n2gfZUY", "plus_code": {"compound_code": "76M9+JC Ann Arbor, MI, USA", "global_code": "86JR76M9+JC"}, "price_level": 1, "rating": 4.4, "reference": "ChIJ0wfDsMGxPIgRgLJ4n2gfZUY", "scope": "GOOGLE", "types": ["restaurant", "food", "point_of_interest", "establishment"], "user_ratings_total": 401, "vicinity": "241 North Maple Road, Ann Arbor"}, {"business_status": "OPERATIONAL", "geometry": {"location": {"lat": 42.2798421, "lng": -83.782594}, "viewport": {"northeast": {"lat": 42.2811926802915, "lng": -83.78119891970849}, "southwest": {"lat": 42.2784947197085, "lng": -83.7838968802915}}}, "icon": "https://maps.gstatic.com/mapfiles/place_api/icons/v1/png_71/restaurant-71.png", "icon_background_color": "#FF9E67", "icon_mask_base_uri": "https://maps.gstatic.com/mapfiles/place_api/icons/v2/restaurant_pinlet", "name": "Star's Cafe", "opening_hours": {"open_now": true}, "photos": [{"height": 4032, "html_attributions": ["<a href=\"https://maps.google.com/maps/contrib/107132983913774431226\">Star&#39;s Cafe</a>"], "photo_reference": "AW30NDxRqywxXDSmS7kX8NsVzkAnI2-MP2F7tnA4sQOIBwmwj9et2yR2Xwto9m0NOG5Sq6dOf0b4RPNYGu2KsK1P8QdIVT4ruPJ1YaudfEtQK33sb9n6DBr2oYmFMpQMF84osIHBYpnfIspeloEjgvDvbB7YF-iGRAe2Ms2DA0KOR0EOlbQe", "width": 3024}], "place_id": "ChIJOxnOlsCxPIgR_ib7fI9uzKA", "plus_code": {"compound_code": "76H8+WX Ann Arbor, MI, USA", "global_code": "86JR76H8+WX"}, "price_level": 1, "rating": 4.8, "reference": "ChIJOxnOlsCxPIgR_ib7fI9uzKA", "scope": "GOOGLE", "types": ["restaurant", "cafe", "food", "point_of_interest", "establishment"], "user_ratings_total": 414, "vicinity": "2575 Jackson Avenue, Ann Arbor"}, {"business_status": "OPERATIONAL", "geometry": {"location": {"lat": 42.2854869, "lng": -83.78170329999999}, "viewport": {"northeast": {"lat": 42.2870343302915, "lng": -83.78071101970849}, "southwest": {"lat": 42.2843363697085, "lng": -83.7834089802915}}}, "icon": "https://maps.gstatic.com/mapfiles/place_api/icons/v1/png_71/restaurant-71.png", "icon_background_color": "#FF9E67", "icon_mask_base_uri": "https://maps.gstatic.com/mapfiles/place_api/icons/v2/restaurant_pinlet", "name": "Tmaz Taqueria (Dexter Ave.)", "opening_hours": {"open_now": true}, "photos": [{"height": 3144, "html_attributions": ["<a href=\"https://maps.google.com/maps/contrib/108278733007023382968\">Tmaz Taqueria (Dexter Ave.)</a>"], "photo_reference": "AW30NDzIcK53VvnUPRl3nESqu0cmJSZzHXREJaFgVo98bhOPnaB8KePG7DCs47dy2LIm74A_KdcsbIR1S_4db1t6tcjve2HfZWsjCky37_RLrtXLyJEKXJLadZB-T6VZfR9m-OxXcVaToHB5XNFHTkhwELaZp9-_t8GI33CfapeFttJC0ORb", "width": 4192}], "place_id": "ChIJracBolmxPIgRR06nPZ1qGyY", "plus_code": {"compound_code": "76P9+58 Ann Arbor, MI, USA", "global_code": "86JR76P9+58"}, "price_level": 1, "rating": 4.5, "reference": "ChIJracBolmxPIgRR06nPZ1qGyY", "scope": "GOOGLE", "types": ["meal_takeaway", "meal_delivery", "restaurant", "food", "point_of_interest", "establishment"], "user_ratings_total": 72, "vicinity": "2529 Dexter Avenue, Ann Arbor"}, {"business_status": "OPERATIONAL", "geometry": {"location": {"lat": 42.2840319, "lng": -83.7816801}, "viewport": {"northeast": {"lat": 42.2853463802915, "lng": -83.7803560697085}, "southwest": {"lat": 42.28264841970851, "lng": -83.78305403029151}}}, "icon": "https://maps.gstatic.com/mapfiles/place_api/icons/v1/png_71/restaurant-71.png", "icon_background_color": "#FF9E67", "icon_mask_base_uri": "https://maps.gstatic.com/mapfiles/place_api/icons/v2/restaurant_pinlet", "name": "Ricewood", "opening_hours": {"open_now": true}, "photos": [{"height": 2016, "html_attributions": ["<a href=\"https://maps.google.com/maps/contrib/109162815770977498183\">Ricewood</a>"], "photo_reference": "AW30NDy72kAk7F67nP10LtQnLqbM_tODo6Ed_oKA2pxPpznfmaS9Xf4IM_6xGxxxZ0kRyyZBHbtmZI3WrT24TbpIOpPoUQvto_Z8MvFkCpC94KcRTP3uS9YjxxfV5jwkdzvLtqTUJLV6oyPRxtePGFB7rmRxq3qPG-Dt6JR_ueT81uZFfgbY", "width": 1512}], "place_id": "ChIJpwc2z9CxPIgRq_L9w82fF2g", "plus_code": {"compound_code": "76M9+J8 Ann Arbor, MI, USA", "global_code": "86JR76M9+J8"}, "rating": 5, "reference": "ChIJpwc2z9CxPIgRq_L9w82fF2g", "scope": "GOOGLE", "types": ["restaurant", "food", "point_of_interest", "establishment"], "user_ratings_total": 171, "vicinity": "245 North Maple Road, Ann Arbor"}, {"business_status": "OPERATIONAL", "geometry": {"location": {"lat": 42.2835955, "lng": -83.7813424}, "viewport": {"northeast": {"lat": 42.2848918802915, "lng": -83.77997216970849}, "southwest": {"lat": 42.2821939197085, "lng": -83.7826701302915}}}, "icon": "https://maps.gstatic.com/mapfiles/place_api/icons/v1/png_71/restaurant-71.png", "icon_background_color": "#FF9E67", "icon_mask_base_uri": "https://maps.gstatic.com/mapfiles/place_api/icons/v2/restaurant_pinlet", "name": "CoreLife Eatery", "opening_hours": {"open_now": true}, "photos": [{"height": 3963, "html_attributions": ["<a href=\"https://maps.google.com/maps/contrib/100114214468553082426\">CoreLife Eatery</a>"], "photo_reference": "AW30NDy4792k9kGYUP8IN1bniAO5TSIq5ITGi34AoL9U6Bm4blnS0FI6hSKSbxIFe7IpqVA5UR3mKzTDVjBc8xkzZzC_Qjr3Q2-JiLV_c0Qi8DhGyWUjy9lhhZivP536poAFMnAxujMlJxNmQ188t7afHf2r65dyogBGw-WAxbY0VpUTP7kQ", "width": 5944}], "place_id": "ChIJ35EGhzGxPIgRInByq4hDrxY", "plus_code": {"compound_code": "76M9+CF Ann Arbor, MI, USA", "global_code": "86JR76M9+CF"}, "price_level": 2, "rating": 4.4, "reference": "ChIJ35EGhzGxPIgRInByq4hDrxY", "scope": "GOOGLE", "types": ["restaurant", "food", "point_of_interest", "establishment"], "user_ratings_total": 313, "vicinity": "205 North Maple Road Suite 26, Ann Arbor"}, {"business_status": "OPERATIONAL", "geometry": {"location": {"lat": 42.2844874, "lng": -83.78348299999999}, "viewport": {"northeast": {"lat": 42.2855461302915, "lng": -83.78195341970849}, "southwest": {"lat": 42.2828481697085, "lng": -83.78465138029149}}}, "icon": "https://maps.gstatic.com/mapfiles/place_api/icons/v1/png_71/restaurant-71.png", "icon_background_color": "#FF9E67", "icon_mask_base_uri": "https://maps.gstatic.com/mapfiles/place_api/icons/v2/restaurant_pinlet", "name": "Panda House", "opening_hours": {"open_now": true}, "photos": [{"height": 3024, "html_attributions": ["<a href=\"https://maps.google.com/maps/contrib/104803386303672481923\">Jonathon Knickelbein</a>"], "photo_reference": "AW30NDykE4gNiEiT6kuwcN-SWI2tBWiet3_2VJ_0FWT5iUaWPW3JSlPv-GY5-OQllxAjkvLdLElMNBA-j4R4WU33WzB9cHl1WiQTvZgQwFkTaxn5qbO3Z6tY2dd-GQq6r3xRLYASatSvTE2haH_oJbV-mKfY9vDlNXQuJghfXIHRt_NJwmZ-", "width": 4032}], "place_id": "ChIJSVCDX6G7PIgRJrdXXJQ46Vc", "plus_code": {"compound_code": "76M8+QJ Ann Arbor, MI, USA", "global_code": "86JR76M8+QJ"}, "price_level": 1, "rating": 4.3, "reference": "ChIJSVCDX6G7PIgRJrdXXJQ46Vc", "scope": "GOOGLE", "types": ["restaurant", "food", "point_of_interest", "establishment"], "user_ratings_total": 104, "vicinity": "229 North Maple Road, Ann Arbor"}, {"business_status": "OPERATIONAL", "geometry": {"location": {"lat": 42.28082980000001, "lng": -83.7829562}, "viewport": {"northeast": {"lat": 42.2820613302915, "lng": -83.78160171970849}, "southwest": {"lat": 42.27936336970851, "lng": -83.78429968029151}}}, "icon": "https://maps.gstatic.com/mapfiles/place_api/icons/v1/png_71/restaurant-71.png", "icon_background_color": "#FF9E67", "icon_mask_base_uri": "https://maps.gstatic.com/mapfiles/place_api/icons/v2/restaurant_pinlet", "name": "Smoothie King", "opening_hours": {"open_now": true}, "photos": [{"height": 3024, "html_attributions": ["<a href=\"https://maps.google.com/maps/contrib/111456400403254241269\">Spencer Field</a>"], "photo_reference": "AW30NDzeAGTvYybvUrxFaqFjpbiVqPjdDb8ebsxzEdTKXJqIUN4kE1oTjwa5ERL5k61NQiUmOXrOl3vlcTe3dkfHzIIlelzFIDTBAfZCExIb3gGZfTMAZZQ1SgS2-Uk7k81YYikAdxWFxxtkRlVni0tFonaqzZ9NOhnlz-gPMBCRn09g3Pxz", "width": 4032}], "place_id": "ChIJy9NZpjOxPIgRW03wGjdtiMo", "plus_code": {"compound_code": "76J8+8R Ann Arbor, MI, USA", "global_code": "86JR76J8+8R"}, "price_level": 2, "rating": 4.1, "reference": "ChIJy9NZpjOxPIgRW03wGjdtiMo", "scope": "GOOGLE", "types": ["health", "meal_delivery", "store", "restaurant", "food", "point_of_interest", "establishment"], "user_ratings_total": 77, "vicinity": "2635 Jackson Avenue, Ann Arbor"}, {"business_status": "OPERATIONAL", "geometry": {"location": {"lat": 42.2823664, "lng": -83.7878087}, "viewport": {"northeast": {"lat": 42.2837652302915, "lng": -83.78646451970849}, "southwest": {"lat": 42.2810672697085, "lng": -83.78916248029151}}}, "icon": "https://maps.gstatic.com/mapfiles/place_api/icons/v1/png_71/cafe-71.png", "icon_background_color": "#FF9E67", "icon_mask_base_uri": "https://maps.gstatic.com/mapfiles/place_api/icons/v2/cafe_pinlet", "name": "19 Drips Coffee and Tea", "opening_hours": {"open_now": true}, "photos": [{"height": 4032, "html_attributions": ["<a href=\"https://maps.google.com/maps/contrib/104547736854244122427\">Darlene Perrine</a>"], "photo_reference": "AW30NDwFQ7zKI4_bwTZ54zxmry8ARS4a2SiB1T-Th2ALuft1kcL97Hhm10OQ7IG_iY1yLIYcA4Q4yJl0QLU6cMUweOhnHydW9K-GdX7LH8aehv6WXCfPtGkZH2Ff0uOecN_tEBl_lqhieNz-WudAdWBH3d7-6pkr7Jp_I5VOHn4T0UxEbRgN", "width": 3024}], "place_id": "ChIJf2xyQKWxPIgROi7JT9q0gEE", "plus_code": {"compound_code": "76J6+WV Ann Arbor, MI, USA", "global_code": "86JR76J6+WV"}, "rating": 4.7, "reference": "ChIJf2xyQKWxPIgROi7JT9q0gEE", "scope": "GOOGLE", "types": ["cafe", "store", "restaurant", "food", "point_of_interest", "establishment"], "user_ratings_total": 26, "vicinity": "2891 Jackson Avenue, Ann Arbor"}, {"business_status": "OPERATIONAL", "geometry": {"location": {"lat": 42.2799861, "lng": -83.7809722}, "viewport": {"northeast": {"lat": 42.2814163802915, "lng": -83.77968021970848}, "southwest": {"lat": 42.2787184197085, "lng": -83.78237818029149}}}, "icon": "https://maps.gstatic.com/mapfiles/place_api/icons/v1/png_71/restaurant-71.png", "icon_background_color": "#FF9E67", "icon_mask_base_uri": "https://maps.gstatic.com/mapfiles/place_api/icons/v2/restaurant_pinlet", "name": "Zingerman's Roadhouse", "opening_hours": {"open_now": true}, "photos": [{"height": 6656, "html_attributions": ["<a href=\"https://maps.google.com/maps/contrib/108725899343504053624\">Zingerman&#39;s Roadhouse</a>"], "photo_reference": "AW30NDxltWsBfiNNMb1xHkj6WaHbTkwj_2RGjic-YM7PINcMP7rFuSADYlOZtBw77va_2SasIfTlp2_ibFtOA90Cq3DMegnVEjklfUQJqXIAbcGUbiPdBYjihYyEuB2F6MULvY6rzBPTgLgI83gktX9UF7Y1grAeGraOc9CoERa8knbAcxW-", "width": 13312}], "place_id": "ChIJTQuF4cCxPIgR6H_8jbqyg88", "plus_code": {"compound_code": "76H9+XJ Ann Arbor, MI, USA", "global_code": "86JR76H9+XJ"}, "price_level": 3, "rating": 4.4, "reference": "ChIJTQuF4cCxPIgR6H_8jbqyg88", "scope": "GOOGLE", "types": ["cafe", "meal_takeaway", "bar", "store", "restaurant", "food", "point_of_interest", "establishment"], "user_ratings_total": 4023, "vicinity": "2501 Jackson Avenue, Ann Arbor"}, {"business_status": "OPERATIONAL", "geometry": {"location": {"lat": 42.278143, "lng": -83.7790404}, "viewport": {"northeast": {"lat": 42.27953513029149, "lng": -83.7778765697085}, "southwest": {"lat": 42.2768371697085, "lng": -83.7805745302915}}}, "icon": "https://maps.gstatic.com/mapfiles/place_api/icons/v1/png_71/restaurant-71.png", "icon_background_color": "#FF9E67", "icon_mask_base_uri": "https://maps.gstatic.com/mapfiles/place_api/icons/v2/restaurant_pinlet", "name": "Subway", "opening_hours": {"open_now": true}, "photos": [{"height": 4032, "html_attributions": ["<a href=\"https://maps.google.com/maps/contrib/106964220908448074655\">Christopher Demetriou</a>"], "photo_reference": "AW30NDyvtXC9dsbs0nN3iefUzh6gwspEhWULNwQ8PNcXQwiZkH6bkq-q9bPFv8DjaRHiTKFgPdtJSlqoNKNQosEfEKAFLOXQAKmI-2Bj3Bp4hnnviFsl-IGROIPcTadVRBsEh1UVOzfK14HDGrh-e_qOi6GboGml4R2DPeLjAZZjqjOtoiA4", "width": 3024}], "place_id": "ChIJMfDIl8axPIgRFg3mpo_v748", "plus_code": {"compound_code": "76HC+79 Ann Arbor, MI, USA", "global_code": "86JR76HC+79"}, "price_level": 1, "rating": 4.1, "reference": "ChIJMfDIl8axPIgRFg3mpo_v748", "scope": "GOOGLE", "types": ["meal_takeaway", "restaurant", "food", "point_of_interest", "establishment"], "user_ratings_total": 157, "vicinity": "2410 West Stadium Boulevard, Ann Arbor"}, {"business_status": "OPERATIONAL", "geometry": {"location": {"lat": 42.2766201, "lng": -83.7777539}, "viewport": {"northeast": {"lat": 42.2779031802915, "lng": -83.7763572197085}, "southwest": {"lat": 42.2752052197085, "lng": -83.77905518029151}}}, "icon": "https://maps.gstatic.com/mapfiles/place_api/icons/v1/png_71/restaurant-71.png", "icon_background_color": "#FF9E67", "icon_mask_base_uri": "https://maps.gstatic.com/mapfiles/place_api/icons/v2/restaurant_pinlet", "name": "McDonald's", "opening_hours": {"open_now": true}, "photos": [{"height": 1843, "html_attributions": ["<a href=\"https://maps.google.com/maps/contrib/114105575340550351797\">MarkaPhotog</a>"], "photo_reference": "AW30NDzViMrv9S3iXPmHXdUC-p8gNefWHqvlVhN3YTw_oyrqI_ZIzJ28GTlkH3L3a2D0FQ0yulejmTA4mo2mhnlX8NQ4_syGjln0y1s3bVvHpvi5H51ANvHLE_vnsI618VfAiwLVAeUYX-hdd2quXksk4LZhlV3M0t5ftl6DqauEagojTdN1", "width": 3346}], "place_id": "ChIJv7dI0cWxPIgRcrmwuwklcow", "plus_code": {"compound_code": "76GC+JV Ann Arbor, MI, USA", "global_code": "86JR76GC+JV"}, "price_level": 1, "rating": 3, "reference": "ChIJv7dI0cWxPIgRcrmwuwklcow", "scope": "GOOGLE", "types": ["cafe", "store", "restaurant", "food", "point_of_interest", "establishment"], "user_ratings_total": 1368, "vicinity": "2310 West Stadium Boulevard, Ann Arbor"}, {"business_status": "OPERATIONAL", "geometry": {"location": {"lat": 42.27605030000001, "lng": -83.7775152}, "viewport": {"northeast": {"lat": 42.27735798029151, "lng": -83.77617891970849}, "southwest": {"lat": 42.27466001970851, "lng": -83.77887688029149}}}, "icon": "https://maps.gstatic.com/mapfiles/place_api/icons/v1/png_71/restaurant-71.png", "icon_background_color": "#FF9E67", "icon_mask_base_uri": "https://maps.gstatic.com/mapfiles/place_api/icons/v2/restaurant_pinlet", "name": "Taco Bell", "opening_hours": {"open_now": true}, "photos": [{"height": 3024, "html_attributions": ["<a href=\"https://maps.google.com/maps/contrib/107060090139880601663\">Jen Djuracic</a>"], "photo_reference": "AW30NDzRNkBS_f45_L9evE62CDQ-zNMD9hfRnakzZ5pL2GcT3seH7EQEXY23bi03uc727phUiJt4tLAp9T5kpyfM1ocopbfsw2AqzHSd8z2xicyyps_9ey5i_A-2pX-CrLp_XE8ifPTTX7CoRqM71ol2VNjhQa-8K2abKsjKM-1jGaK7Uj1a", "width": 4032}], "place_id": "ChIJ2UQY3cWxPIgRzYI8z5HbVzI", "plus_code": {"compound_code": "76GC+CX Ann Arbor, MI, USA", "global_code": "86JR76GC+CX"}, "price_level": 1, "rating": 3.2, "reference": "ChIJ2UQY3cWxPIgRzYI8z5HbVzI", "scope": "GOOGLE", "types": ["meal_takeaway", "restaurant", "food", "point_of_interest", "establishment"], "user_ratings_total": 950, "vicinity": "2280 West Stadium Boulevard, Ann Arbor"}, {"business_status": "OPERATIONAL", "geometry": {"location": {"lat": 42.27365779999999, "lng": -83.77756049999999}, "viewport": {"northeast": {"lat": 42.27510058029149, "lng": -83.77613046970848}, "southwest": {"lat": 42.27240261970849, "lng": -83.7788284302915}}}, "icon": "https://maps.gstatic.com/mapfiles/place_api/icons/v1/png_71/restaurant-71.png", "icon_background_color": "#FF9E67", "icon_mask_base_uri": "https://maps.gstatic.com/mapfiles/place_api/icons/v2/restaurant_pinlet", "name": "Pilar's Tamales", "opening_hours": {"open_now": true}, "photos": [{"height": 3024, "html_attributions": ["<a href=\"https://maps.google.com/maps/contrib/108068745062571672792\">Nathan Dutton</a>"], "photo_reference": "AW30NDxIzbOoUwOebWNqESmXBicsKmtxUYTr_VXguTOntkFgH7vrdIyadNSN3grcwewtKthhpd4ZkLvxHrjUR_ydAuZSzIdjz6PBZtVlTUe9HIGqPoHhyN3tjiYm4TFX9ZWq3tVcyi63GGjMkmHz5t2JOeEX5kH9ZvCOM75ZgJYYJLa-C8k8", "width": 4032}], "place_id": "ChIJuV7ORM-xPIgRmZsFdift0lY", "plus_code": {"compound_code": "76FC+FX Ann Arbor, MI, USA", "global_code": "86JR76FC+FX"}, "price_level": 1, "rating": 4.8, "reference": "ChIJuV7ORM-xPIgRmZsFdift0lY", "scope": "GOOGLE", "types": ["store", "restaurant", "food", "point_of_interest", "establishment"], "user_ratings_total": 233, "vicinity": "2261 West Liberty Road, Ann Arbor"}, {"business_status": "OPERATIONAL", "geometry": {"location": {"lat": 42.27375540000001, "lng": -83.7774634}, "viewport": {"northeast": {"lat": 42.2751493802915, "lng": -83.7760941197085}, "southwest": {"lat": 42.2724514197085, "lng": -83.77879208029151}}}, "icon": "https://maps.gstatic.com/mapfiles/place_api/icons/v1/png_71/restaurant-71.png", "icon_background_color": "#FF9E67", "icon_mask_base_uri": "https://maps.gstatic.com/mapfiles/place_api/icons/v2/restaurant_pinlet", "name": "Hello Faz Pizza", "opening_hours": {"open_now": true}, "photos": [{"height": 3024, "html_attributions": ["<a href=\"https://maps.google.com/maps/contrib/114068524203910641789\">Hiroyuki Takisawa</a>"], "photo_reference": "AW30NDwfMQEa9BnMsfHnxyYRbTTcTywqdPtaQKd6_5EpuIQLRrl02HlOfqiOvA0ADdsY14CfUKHWJPnl2bUxYijNj8T0lrpdzmDUgbqQLyfM6UIB7Mdp97eWg2tw9LROTa5cSg7R0qk8hTQDJ_wiAGh6Y_1SZnL7jC2PpKm203uStOQ6plAM", "width": 4032}], "place_id": "ChIJycjQXc-xPIgRlgU4HI-I6uw", "plus_code": {"compound_code": "76FF+G2 Ann Arbor, MI, USA", "global_code": "86JR76FF+G2"}, "price_level": 1, "rating": 4.3, "reference": "ChIJycjQXc-xPIgRlgU4HI-I6uw", "scope": "GOOGLE", "types": ["meal_delivery", "meal_takeaway", "restaurant", "food", "point_of_interest", "establishment"], "user_ratings_total": 302, "vicinity": "2259 West Liberty Road, Ann Arbor"}, {"business_status": "OPERATIONAL", "geometry": {"location": {"lat": 42.2740216, "lng": -83.7793779}, "viewport": {"northeast": {"lat": 42.2753948302915, "lng": -83.77837366970849}, "southwest": {"lat": 42.2726968697085, "lng": -83.7810716302915}}}, "icon": "https://maps.gstatic.com/mapfiles/place_api/icons/v1/png_71/restaurant-71.png", "icon_background_color": "#FF9E67", "icon_mask_base_uri": "https://maps.gstatic.com/mapfiles/place_api/icons/v2/restaurant_pinlet", "name": "Chela\u2019s Restaurant & Taqueria", "opening_hours": {"open_now": true}, "photos": [{"height": 912, "html_attributions": ["<a href=\"https://maps.google.com/maps/contrib/116183898341674393513\">Chela\u2019s Restaurant &amp; Taqueria</a>"], "photo_reference": "AW30NDzxjmP1Owqk1l30IZ90TtAmce93pevJCnRzisfSRRFp3i5wKp3Q9Po2lnskRP3O4jpzRTdM288E7ul4aVO6VhFZNcFUpaXC0adZzzhYoxDsn3ayqd6xYf5YgJCa0vzvBut7Xb51-so-PF1xVrqY5RglxNOfhwUpaxpAHPGlkddJXPW2", "width": 1620}], "place_id": "ChIJ0bKOk8ixPIgRsZE90wTb8KU", "plus_code": {"compound_code": "76FC+J6 Ann Arbor, MI, USA", "global_code": "86JR76FC+J6"}, "price_level": 1, "rating": 4.5, "reference": "ChIJ0bKOk8ixPIgRsZE90wTb8KU", "scope": "GOOGLE", "types": ["meal_delivery", "restaurant", "food", "point_of_interest", "establishment"], "user_ratings_total": 1421, "vicinity": "693 South Maple Road, Ann Arbor"}, {"business_status": "OPERATIONAL", "geometry": {"location": {"lat": 42.2784373, "lng": -83.78215589999999}, "viewport": {"northeast": {"lat": 42.2799917802915, "lng": -83.7809395197085}, "southwest": {"lat": 42.2772938197085, "lng": -83.7836374802915}}}, "icon": "https://maps.gstatic.com/mapfiles/place_api/icons/v1/png_71/cafe-71.png", "icon_background_color": "#FF9E67", "icon_mask_base_uri": "https://maps.gstatic.com/mapfiles/place_api/icons/v2/cafe_pinlet", "name": "Sweetwaters Coffee & Tea", "opening_hours": {"open_now": true}, "photos": [{"height": 1333, "html_attributions": ["<a href=\"https://maps.google.com/maps/contrib/107157360422108089833\">Sweetwaters Coffee &amp; Tea</a>"], "photo_reference": "AW30NDwsZtBCg_OUFNWXImVjvge9SXQ5EXekWUf4RIkDZVHkZ2rxQdrY5Cyfqko0RwWIqT1andvgJ-3-TLE4ormYRpy4vhVXcfKQGeFpAxdomWcGOUiDb_V6iMkfSC602yaVPrmOEgB4UeY-iiuJ4Y61nMn02aHadOg_TVanfYMNxws2xXLI", "width": 2000}], "place_id": "ChIJE02_Q8exPIgRxButipUh0uw", "plus_code": {"compound_code": "76H9+94 Ann Arbor, MI, USA", "global_code": "86JR76H9+94"}, "rating": 4.3, "reference": "ChIJE02_Q8exPIgRxButipUh0uw", "scope": "GOOGLE", "types": ["cafe", "store", "restaurant", "food", "point_of_interest", "establishment"], "user_ratings_total": 193, "vicinity": "2503 Jackson Avenue, Ann Arbor"}, {"business_status": "OPERATIONAL", "geometry": {"location": {"lat": 42.2760778, "lng": -83.77827549999999}, "viewport": {"northeast": {"lat": 42.2774997802915, "lng": -83.7768720197085}, "southwest": {"lat": 42.2748018197085, "lng": -83.77956998029151}}}, "icon": "https://maps.gstatic.com/mapfiles/place_api/icons/v1/png_71/generic_business-71.png", "icon_background_color": "#7B9EB0", "icon_mask_base_uri": "https://maps.gstatic.com/mapfiles/place_api/icons/v2/generic_pinlet", "name": "Cottage Inn Pizza Ann Arbor Stadium", "opening_hours": {"open_now": true}, "photos": [{"height": 2448, "html_attributions": ["<a href=\"https://maps.google.com/maps/contrib/102159824683972188550\">Cottage Inn Pizza Ann Arbor Stadium</a>"], "photo_reference": "AW30NDwnnWkxdAv1QGU5dPWh14LTt9M82POw86-XySNXhFB1d79bUI66T2YXscPNmYmrk4NoEhqOxU8lMPOkFysBGaD5ust_uRW2lW2I7dg_WLCyaSj8H8OldlbFYaDRY_rO3wuMp-uZdyqzso92R3tKIPVKR-k_xaz_gR4Lszz4bEDkEpJv", "width": 3264}], "place_id": "ChIJy47UdsaxPIgRkX1EOBoC67c", "plus_code": {"compound_code": "76GC+CM Ann Arbor, MI, USA", "global_code": "86JR76GC+CM"}, "price_level": 1, "rating": 4, "reference": "ChIJy47UdsaxPIgRkX1EOBoC67c", "scope": "GOOGLE", "types": ["meal_delivery", "meal_takeaway", "lodging", "restaurant", "food", "point_of_interest", "establishment"], "user_ratings_total": 322, "vicinity": "2301 West Stadium Boulevard, Ann Arbor"}, {"business_status": "OPERATIONAL", "geometry": {"location": {"lat": 42.2796749, "lng": -83.7827343}, "viewport": {"northeast": {"lat": 42.2810339802915, "lng": -83.78126431970851}, "southwest": {"lat": 42.2783360197085, "lng": -83.78396228029152}}}, "icon": "https://maps.gstatic.com/mapfiles/place_api/icons/v1/png_71/restaurant-71.png", "icon_background_color": "#FF9E67", "icon_mask_base_uri": "https://maps.gstatic.com/mapfiles/place_api/icons/v2/restaurant_pinlet", "name": "Seva Ann Arbor", "opening_hours": {"open_now": true}, "photos": [{"height": 1155, "html_attributions": ["<a href=\"https://maps.google.com/maps/contrib/110224595674234776758\">Seva Ann Arbor</a>"], "photo_reference": "AW30NDxAS_Z3L9MdhjbofhENp_daBmKsE-uHlnksxhRRYpH4VIdGd3h4uhnzuJFUvUskt6E15mqkOP02_0cPr_3TtMbUPcs6ByRjWHOyca0tPs9U_tlJnrOPvV-ypDCh8q6DKnF9IUs6OClASg2g8OwEVhApZGlxkevi9JmcAYCeD3JutRlB", "width": 2048}], "place_id": "ChIJP-Hykj6uPIgRAiEHUHhsJC0", "plus_code": {"compound_code": "76H8+VW Ann Arbor, MI, USA", "global_code": "86JR76H8+VW"}, "price_level": 2, "rating": 4.5, "reference": "ChIJP-Hykj6uPIgRAiEHUHhsJC0", "scope": "GOOGLE", "types": ["bar", "restaurant", "food", "point_of_interest", "establishment"], "user_ratings_total": 973, "vicinity": "Westgate Shopping Center, 2541 Jackson Avenue, Ann Arbor"}, {"business_status": "OPERATIONAL", "geometry": {"location": {"lat": 42.2798012, "lng": -83.7828317}, "viewport": {"northeast": {"lat": 42.2811724802915, "lng": -83.7813167197085}, "southwest": {"lat": 42.2784745197085, "lng": -83.7840146802915}}}, "icon": "https://maps.gstatic.com/mapfiles/place_api/icons/v1/png_71/restaurant-71.png", "icon_background_color": "#FF9E67", "icon_mask_base_uri": "https://maps.gstatic.com/mapfiles/place_api/icons/v2/restaurant_pinlet", "name": "Jersey Mike's Subs", "opening_hours": {"open_now": true}, "photos": [{"height": 3000, "html_attributions": ["<a href=\"https://maps.google.com/maps/contrib/107749847104334115760\">Jersey Mike&#39;s Subs</a>"], "photo_reference": "AW30NDy6-HMKjZfC_a28Jv3ERPN3pHv_Werx28OsiYrOKDBGi4eoxEI-2Llgj2tQROdiAAevAEgEEKcccMF8ZtLMArEuIWQnC0Ou-5huQ2hAaHkfDERH-WeC37D28UERPn3IAIu_3LifuHT3NxlBLHUOorq4R6CGY8O0WG4RUyC3_1stAycI", "width": 2000}], "place_id": "ChIJi4wZlMCxPIgRKiijr1dEFFc", "plus_code": {"compound_code": "76H8+WV Ann Arbor, MI, USA", "global_code": "86JR76H8+WV"}, "price_level": 1, "rating": 4.3, "reference": "ChIJi4wZlMCxPIgRKiijr1dEFFc", "scope": "GOOGLE", "types": ["meal_takeaway", "store", "restaurant", "food", "point_of_interest", "establishment"], "user_ratings_total": 278, "vicinity": "2561 Jackson Avenue, Ann Arbor"}, {"business_status": "OPERATIONAL", "geometry": {"location": {"lat": 42.27498979999999, "lng": -83.7778563}, "viewport": {"northeast": {"lat": 42.2763637302915, "lng": -83.77630001970849}, "southwest": {"lat": 42.2736657697085, "lng": -83.7789979802915}}}, "icon": "https://maps.gstatic.com/mapfiles/place_api/icons/v1/png_71/restaurant-71.png", "icon_background_color": "#FF9E67", "icon_mask_base_uri": "https://maps.gstatic.com/mapfiles/place_api/icons/v2/restaurant_pinlet", "name": "Hot Pot Chen", "opening_hours": {"open_now": true}, "photos": [{"height": 2448, "html_attributions": ["<a href=\"https://maps.google.com/maps/contrib/113188328433504114650\">Mark Johnson</a>"], "photo_reference": "AW30NDwZsxlG9rwfKn77J_0ou5fdqei8TUSDmzjihdGJmSkcikUl5UOr5F515509em9W4mA9Wh978JJahFlXwwRTAPQOHFWQ6DKzI0QwZNSrEasF1A8Y6ncFN_JY18v99QiGFTpC550CUAyrnWMufKe8HEe-_vDEWLIs3HnDGgf0I0Uiz_NJ", "width": 3264}], "place_id": "ChIJwx4i-8WxPIgRMV-7zpdW8GA", "plus_code": {"compound_code": "76FC+XV Ann Arbor, MI, USA", "global_code": "86JR76FC+XV"}, "price_level": 2, "rating": 3.9, "reference": "ChIJwx4i-8WxPIgRMV-7zpdW8GA", "scope": "GOOGLE", "types": ["meal_takeaway", "restaurant", "food", "point_of_interest", "establishment"], "user_ratings_total": 284, "vicinity": "2255 West Stadium Boulevard, Ann Arbor"}, {"business_status": "OPERATIONAL", "geometry": {"location": {"lat": 42.2802709, "lng": -83.7784623}, "viewport": {"northeast": {"lat": 42.28152548029149, "lng": -83.77709541970849}, "southwest": {"lat": 42.27882751970849, "lng": -83.7797933802915}}}, "icon": "https://maps.gstatic.com/mapfiles/place_api/icons/v1/png_71/generic_business-71.png", "icon_background_color": "#7B9EB0", "icon_mask_base_uri": "https://maps.gstatic.com/mapfiles/place_api/icons/v2/generic_pinlet", "name": "HOMES Brewery - Brewpub", "opening_hours": {"open_now": false}, "photos": [{"height": 638, "html_attributions": ["<a href=\"https://maps.google.com/maps/contrib/102597857118804136512\">HOMES Brewery - Brewpub</a>"], "photo_reference": "AW30NDzl5NvOvUowUq5gotO1RsDmT5o-37KhWjWcdXRY5H-Gw_6V6bl3MrSMT_AplUb6rrhCn4ak6NmkGMdEmqKNar7cMiH7U4wHbn-vtzWgPRN4cOfvY4GFO6Kyxaj5vizFfQius84vzWpxhpq8yxgfxsofLR3JWXW3nGWXafMuSAWiHJQ7", "width": 960}], "place_id": "ChIJqxrHWMGxPIgRphIuLw6I2d0", "plus_code": {"compound_code": "76JC+4J Ann Arbor, MI, USA", "global_code": "86JR76JC+4J"}, "rating": 4.7, "reference": "ChIJqxrHWMGxPIgRphIuLw6I2d0", "scope": "GOOGLE", "types": ["bar", "restaurant", "food", "point_of_interest", "establishment"], "user_ratings_total": 887, "vicinity": "2321 Jackson Avenue, Ann Arbor"}, {"business_status": "OPERATIONAL", "geometry": {"location": {"lat": 42.2736506, "lng": -83.7777074}, "viewport": {"northeast": {"lat": 42.2751856802915, "lng": -83.7762267197085}, "southwest": {"lat": 42.2724877197085, "lng": -83.77892468029151}}}, "icon": "https://maps.gstatic.com/mapfiles/place_api/icons/v1/png_71/restaurant-71.png", "icon_background_color": "#FF9E67", "icon_mask_base_uri": "https://maps.gstatic.com/mapfiles/place_api/icons/v2/restaurant_pinlet", "name": "Chan Garden", "opening_hours": {"open_now": true}, "photos": [{"height": 3024, "html_attributions": ["<a href=\"https://maps.google.com/maps/contrib/105950996407587062606\">Sean Rice</a>"], "photo_reference": "AW30NDy1k_BktXov39_cGirJigMqNW3xUc_K2wMgLq23LhmNDM5Vwh0hbJky3CQ84O8UVgzRCOCtkEmtuN2yUIimT0O5MyhKbi40Or4zGnyc-o_UZQ-553uPh4PLsyYqhG5kwU6Xh4CO7LBUqYKLehISJJ70-urZs0fh4M2hukA6I5f-7ND5", "width": 4032}], "place_id": "ChIJWzstXM-xPIgRzmHP3s8sH4I", "plus_code": {"compound_code": "76FC+FW Ann Arbor, MI, USA", "global_code": "86JR76FC+FW"}, "price_level": 1, "rating": 3.8, "reference": "ChIJWzstXM-xPIgRzmHP3s8sH4I", "scope": "GOOGLE", "types": ["meal_delivery", "restaurant", "food", "point_of_interest", "establishment"], "user_ratings_total": 81, "vicinity": "2265 West Liberty Road, Ann Arbor"}, {"business_status": "OPERATIONAL", "geometry": {"location": {"lat": 42.2733736, "lng": -83.7764456}, "viewport": {"northeast": {"lat": 42.27472583029149, "lng": -83.77498451970851}, "southwest": {"lat": 42.2720278697085, "lng": -83.77768248029152}}}, "icon": "https://maps.gstatic.com/mapfiles/place_api/icons/v1/png_71/restaurant-71.png", "icon_background_color": "#FF9E67", "icon_mask_base_uri": "https://maps.gstatic.com/mapfiles/place_api/icons/v2/restaurant_pinlet", "name": "Bell's Diner", "opening_hours": {"open_now": true}, "photos": [{"height": 2988, "html_attributions": ["<a href=\"https://maps.google.com/maps/contrib/100693579817013712409\">Vince Peters</a>"], "photo_reference": "AW30NDwaP18bIGDwXAcZxA-NdG8PGPYdPqepQLqlxgBQiraXiEl9PF-r45xWJNOvCU7p8KmzitW4iWHi-FWHCEgKZ7MO33XCm1mp9ZFXVqXmwtRFae_E0r64F6H3-YdEf1M8sNKp-Nr3FJKkD4QQev2YqBZGqQ3wwpGfp8sxguyikyE6Vvmh", "width": 5312}], "place_id": "ChIJnZv1cc-xPIgRHA2gkcdbyG4", "plus_code": {"compound_code": "76FF+8C Ann Arbor, MI, USA", "global_code": "86JR76FF+8C"}, "price_level": 1, "rating": 4.6, "reference": "ChIJnZv1cc-xPIgRHA2gkcdbyG4", "scope": "GOOGLE", "types": ["meal_takeaway", "restaurant", "food", "point_of_interest", "establishment"], "user_ratings_total": 769, "vicinity": "2167 West Stadium Boulevard, Ann Arbor"}, {"business_status": "OPERATIONAL", "geometry": {"location": {"lat": 42.2798421, "lng": -83.782594}, "viewport": {"northeast": {"lat": 42.2811926802915, "lng": -83.78119891970849}, "southwest": {"lat": 42.2784947197085, "lng": -83.7838968802915}}}, "icon": "https://maps.gstatic.com/mapfiles/place_api/icons/v1/png_71/restaurant-71.png", "icon_background_color": "#FF9E67", "icon_mask_base_uri": "https://maps.gstatic.com/mapfiles/place_api/icons/v2/restaurant_pinlet", "name": "Star's Cafe", "opening_hours": {"open_now": true}, "photos": [{"height": 4032, "html_attributions": ["<a href=\"https://maps.google.com/maps/contrib/107132983913774431226\">Star&#39;s Cafe</a>"], "photo_reference": "AW30NDx-SOBcYFxLJky-CrGbkJM-eyyxEsAjOhXauGgliWIBlPtq_uPVu1thyp1Bp9IuApn-NOO5u3Wv-5wS9WAZ7tBTZvqf7ap-vA35PuZxTP4fq1yFvFvrV8DPTPky2dHgGbNT_Red2M6xdoy_RzO9g-MF1uOR_lQsuHVFhpF_niiZ3Eb0", "width": 3024}], "place_id": "ChIJOxnOlsCxPIgR_ib7fI9uzKA", "plus_code": {"compound_code": "76H8+WX Ann Arbor, MI, USA", "global_code": "86JR76H8+WX"}, "price_level": 1, "rating": 4.8, "reference": "ChIJOxnOlsCxPIgR_ib7fI9uzKA", "scope": "GOOGLE", "types": ["restaurant", "cafe", "food", "point_of_interest", "establishment"], "user_ratings_total": 414, "vicinity": "2575 Jackson Avenue, Ann Arbor"}, {"business_status": "OPERATIONAL", "geometry": {"location": {"lat": 42.27482699999999, "lng": -83.7776251}, "viewport": {"northeast": {"lat": 42.27623938029149, "lng": -83.7760882197085}, "southwest": {"lat": 42.27354141970849, "lng": -83.7787861802915}}}, "icon": "https://maps.gstatic.com/mapfiles/place_api/icons/v1/png_71/restaurant-71.png", "icon_background_color": "#FF9E67", "icon_mask_base_uri": "https://maps.gstatic.com/mapfiles/place_api/icons/v2/restaurant_pinlet", "name": "Noodles and Company", "opening_hours": {"open_now": true}, "photos": [{"height": 1944, "html_attributions": ["<a href=\"https://maps.google.com/maps/contrib/100202453941242263603\">LaRoice Turner</a>"], "photo_reference": "AW30NDzIN1O8fYJjHZ_q0o3CoG89ianAoT0L-4plv_W2kvtueAxZ9P2QufwgKyQm5gxD9giF9NR16FJv0ZCh3uX19oyx0RiSNnjrhSpfVMmuIah8iXKPlaOSS688cYrxCubdAeEr0uBlMACBMyoEXA_o9uKIMkpb4bDFHcQADYTXEoOBciU", "width": 2592}], "place_id": "ChIJMx2-8MWxPIgRDdf6gsUcV9Q", "plus_code": {"compound_code": "76FC+WW Ann Arbor, MI, USA", "global_code": "86JR76FC+WW"}, "price_level": 1, "rating": 4.1, "reference": "ChIJMx2-8MWxPIgRDdf6gsUcV9Q", "scope": "GOOGLE", "types": ["restaurant", "meal_takeaway", "store", "food", "point_of_interest", "establishment"], "user_ratings_total": 492, "vicinity": "2245 West Stadium Boulevard, Ann Arbor"}, {"business_status": "OPERATIONAL", "geometry": {"location": {"lat": 42.2737305, "lng": -83.7771451}, "viewport": {"northeast": {"lat": 42.27508933029149, "lng": -83.7759215697085}, "southwest": {"lat": 42.27239136970849, "lng": -83.77861953029151}}}, "icon": "https://maps.gstatic.com/mapfiles/place_api/icons/v1/png_71/restaurant-71.png", "icon_background_color": "#FF9E67", "icon_mask_base_uri": "https://maps.gstatic.com/mapfiles/place_api/icons/v2/restaurant_pinlet", "name": "Taco King", "opening_hours": {"open_now": true}, "photos": [{"height": 3024, "html_attributions": ["<a href=\"https://maps.google.com/maps/contrib/109679702059744729327\">James Smith</a>"], "photo_reference": "AW30NDxBaQS7VvXneEm0dknLIvzqavwMDFcO4JDrm4NOpRuwfbjBWE1ZyKDVhfmGcADlkAgW9wXKIhXne98rF5RaHI7EYpi4wzbyIfKXB0Ti02044oAB1RRNDT7YmWgE5eUOf_F1zYmOsN6wdyRbxJAI8XDl5e0KtYI3FWGAm3E92eZD9oix", "width": 4032}], "place_id": "ChIJK1wjQ8-xPIgRFGOtwsOaG4U", "plus_code": {"compound_code": "76FF+F4 Ann Arbor, MI, USA", "global_code": "86JR76FF+F4"}, "price_level": 1, "rating": 4.2, "reference": "ChIJK1wjQ8-xPIgRFGOtwsOaG4U", "scope": "GOOGLE", "types": ["supermarket", "meal_delivery", "grocery_or_supermarket", "store", "restaurant", "food", "point_of_interest", "establishment"], "user_ratings_total": 437, "vicinity": "2231 West Liberty Road, Ann Arbor"}, {"business_status": "OPERATIONAL", "geometry": {"location": {"lat": 42.27579490000001, "lng": -83.7783625}, "viewport": {"northeast": {"lat": 42.2772066802915, "lng": -83.7767816197085}, "southwest": {"lat": 42.2745087197085, "lng": -83.77947958029151}}}, "icon": "https://maps.gstatic.com/mapfiles/place_api/icons/v1/png_71/restaurant-71.png", "icon_background_color": "#FF9E67", "icon_mask_base_uri": "https://maps.gstatic.com/mapfiles/place_api/icons/v2/restaurant_pinlet", "name": "Chipotle Mexican Grill", "opening_hours": {"open_now": true}, "photos": [{"height": 3024, "html_attributions": ["<a href=\"https://maps.google.com/maps/contrib/116084552931660688305\">G Argentini</a>"], "photo_reference": "AW30NDzfofODw2DDvgePA6DVAg0WkRywQ3u5t95C4M7zZcbllVOlHQKHUdRJmhvCOIgQIMF2eAR6dWKUgwri4yjG7SfZyZsEDfiz9l2FhwI3HfplfhLPcn7BYNrTcjzvPICUJHr-V3H7U7XR9E7nuWm7HYQFBuhxWnnot6W81T6bXHSfNU8o", "width": 4032}], "place_id": "ChIJSf3CMxexPIgRQn4FavoJ3wQ", "plus_code": {"compound_code": "76GC+8M Ann Arbor, MI, USA", "global_code": "86JR76GC+8M"}, "price_level": 1, "rating": 2.8, "reference": "ChIJSf3CMxexPIgRQn4FavoJ3wQ", "scope": "GOOGLE", "types": ["restaurant", "food", "point_of_interest", "establishment"], "user_ratings_total": 204, "vicinity": "2295 West Stadium Boulevard, Ann Arbor"}, {"business_status": "OPERATIONAL", "geometry": {"location": {"lat": 42.273879, "lng": -83.77935839999999}, "viewport": {"northeast": {"lat": 42.2752768302915, "lng": -83.77836066970849}, "southwest": {"lat": 42.2725788697085, "lng": -83.7810586302915}}}, "icon": "https://maps.gstatic.com/mapfiles/place_api/icons/v1/png_71/restaurant-71.png", "icon_background_color": "#FF9E67", "icon_mask_base_uri": "https://maps.gstatic.com/mapfiles/place_api/icons/v2/restaurant_pinlet", "name": "Buscemi's of Ann Arbor", "opening_hours": {"open_now": true}, "photos": [{"height": 1000, "html_attributions": ["<a href=\"https://maps.google.com/maps/contrib/110147476595862377257\">Buscemi&#39;s of Ann Arbor</a>"], "photo_reference": "AW30NDyWYGUyq4uvujnmT_XYEOlOGW1vL_8z9RKHW1-sZ51JJGAXlnKdwk2U6borX_bnijgjzqeDXz2uAn-t8U8m3CKS8oJsXfTi5J1MzRsv7nzJ0e1IGxtQdwwuFkiKx-XkYKu7tRdUii8-vYRFgAkdwJkbFHJmJLUGyzdPzuToyDs6f5uA", "width": 750}], "place_id": "ChIJ3Sx2lMixPIgR9FKNLF38dew", "plus_code": {"compound_code": "76FC+H7 Ann Arbor, MI, USA", "global_code": "86JR76FC+H7"}, "price_level": 1, "rating": 4.1, "reference": "ChIJ3Sx2lMixPIgR9FKNLF38dew", "scope": "GOOGLE", "types": ["meal_takeaway", "liquor_store", "finance", "store", "restaurant", "food", "point_of_interest", "establishment"], "user_ratings_total": 76, "vicinity": "695 South Maple Road, Ann Arbor"}, {"business_status": "OPERATIONAL", "geometry": {"location": {"lat": 42.2699816, "lng": -83.772801}, "viewport": {"northeast": {"lat": 42.27128218029149, "lng": -83.7715526697085}, "southwest": {"lat": 42.26858421970849, "lng": -83.7742506302915}}}, "icon": "https://maps.gstatic.com/mapfiles/place_api/icons/v1/png_71/restaurant-71.png", "icon_background_color": "#FF9E67", "icon_mask_base_uri": "https://maps.gstatic.com/mapfiles/place_api/icons/v2/restaurant_pinlet", "name": "Little Caesars Pizza", "opening_hours": {"open_now": true}, "photos": [{"height": 2866, "html_attributions": ["<a href=\"https://maps.google.com/maps/contrib/105891212436033967708\">Erick Bzovi</a>"], "photo_reference": "AW30NDwbdKm8tGWoIUNvF1H_yKteOlQdp92dyjkzvIgbP3ROzs8zbMyZaEhmrqt2NYqg-lWGIKYbJpkrziM7OOUzMmxUKJsRhwPth9VlmAYtOo7XO6hq3wvu0itH7QqyxOlcgVkNLxj33eEsDZg7DapeWRtg0O_EgqdbdkaU3jzJjRB2PIMN", "width": 3260}], "place_id": "ChIJ0YJzG9KxPIgRELx9g9Zs7mA", "plus_code": {"compound_code": "769G+XV Ann Arbor, MI, USA", "global_code": "86JR769G+XV"}, "price_level": 1, "rating": 4.3, "reference": "ChIJ0YJzG9KxPIgRELx9g9Zs7mA", "scope": "GOOGLE", "types": ["meal_takeaway", "meal_delivery", "restaurant", "food", "point_of_interest", "establishment"], "user_ratings_total": 398, "vicinity": "1944 West Stadium Boulevard, Ann Arbor"}, {"business_status": "OPERATIONAL", "geometry": {"location": {"lat": 42.27365779999999, "lng": -83.77756049999999}, "viewport": {"northeast": {"lat": 42.27510058029149, "lng": -83.77613046970848}, "southwest": {"lat": 42.27240261970849, "lng": -83.7788284302915}}}, "icon": "https://maps.gstatic.com/mapfiles/place_api/icons/v1/png_71/restaurant-71.png", "icon_background_color": "#FF9E67", "icon_mask_base_uri": "https://maps.gstatic.com/mapfiles/place_api/icons/v2/restaurant_pinlet", "name": "Pilar's Tamales", "opening_hours": {"open_now": true}, "photos": [{"height": 3024, "html_attributions": ["<a href=\"https://maps.google.com/maps/contrib/108068745062571672792\">Nathan Dutton</a>"], "photo_reference": "AW30NDz6QWnhA0-XjE2LvM8QX1cXE516JiCjcxZYZ51dmFqPD1tFjAhszSg-w5Xx5Uth7ScpIizqV8HLX7tjJl3iux4jiNx6PsySwTozAZYtL_EEdlVegZVViJIjAb1CqkUH3WleuUF0JQ2gLx_XUCdRGwwpmWRqjy62wkrj7Y7Uzuzsb264", "width": 4032}], "place_id": "ChIJuV7ORM-xPIgRmZsFdift0lY", "plus_code": {"compound_code": "76FC+FX Ann Arbor, MI, USA", "global_code": "86JR76FC+FX"}, "price_level": 1, "rating": 4.8, "reference": "ChIJuV7ORM-xPIgRmZsFdift0lY", "scope": "GOOGLE", "types": ["store", "restaurant", "food", "point_of_interest", "establishment"], "user_ratings_total": 233, "vicinity": "2261 West Liberty Road, Ann Arbor"}, {"business_status": "OPERATIONAL", "geometry": {"location": {"lat": 42.27375540000001, "lng": -83.7774634}, "viewport": {"northeast": {"lat": 42.2751493802915, "lng": -83.7760941197085}, "southwest": {"lat": 42.2724514197085, "lng": -83.77879208029151}}}, "icon": "https://maps.gstatic.com/mapfiles/place_api/icons/v1/png_71/restaurant-71.png", "icon_background_color": "#FF9E67", "icon_mask_base_uri": "https://maps.gstatic.com/mapfiles/place_api/icons/v2/restaurant_pinlet", "name": "Hello Faz Pizza", "opening_hours": {"open_now": true}, "photos": [{"height": 3024, "html_attributions": ["<a href=\"https://maps.google.com/maps/contrib/114068524203910641789\">Hiroyuki Takisawa</a>"], "photo_reference": "AW30NDzJipQKIEvNZO26nygPcAhMI4AueXs3KebPbxg78DfDHQKFW6ZiGKOo6MO5B-3FBYdxD4RTIEsWAFzHmG0qDsQ-dvINvlUwDJYosBs_arPmCM-YqCTx-JgAaHfoFiLJPMHVAUFUPww2i95yKUAtJXX5d4xbGXGbOVJbkWamzzkoc69j", "width": 4032}], "place_id": "ChIJycjQXc-xPIgRlgU4HI-I6uw", "plus_code": {"compound_code": "76FF+G2 Ann Arbor, MI, USA", "global_code": "86JR76FF+G2"}, "price_level": 1, "rating": 4.3, "reference": "ChIJycjQXc-xPIgRlgU4HI-I6uw", "scope": "GOOGLE", "types": ["meal_takeaway", "meal_delivery", "restaurant", "food", "point_of_interest", "establishment"], "user_ratings_total": 302, "vicinity": "2259 West Liberty Road, Ann Arbor"}, {"business_status": "OPERATIONAL", "geometry": {"location": {"lat": 42.2740216, "lng": -83.7793779}, "viewport": {"northeast": {"lat": 42.2753948302915, "lng": -83.77837366970849}, "southwest": {"lat": 42.2726968697085, "lng": -83.7810716302915}}}, "icon": "https://maps.gstatic.com/mapfiles/place_api/icons/v1/png_71/restaurant-71.png", "icon_background_color": "#FF9E67", "icon_mask_base_uri": "https://maps.gstatic.com/mapfiles/place_api/icons/v2/restaurant_pinlet", "name": "Chela\u2019s Restaurant & Taqueria", "opening_hours": {"open_now": true}, "photos": [{"height": 912, "html_attributions": ["<a href=\"https://maps.google.com/maps/contrib/116183898341674393513\">Chela\u2019s Restaurant &amp; Taqueria</a>"], "photo_reference": "AW30NDyzwXBwm1JOQyVS9yacrVptru8OwL_KJBDVd5j9iPGzwGW_pTEtAv9IFHB1dLPh8s6E9XHxfoR8il_FR-i88ciBJEnkqfGFC1UAxD6meZA6yJwOZdPQ4CIMXCacNSfMylrpw2N9PVaHEG82kwYPkd8pQwuApKogAUZAhqZx5ExFkhDy", "width": 1620}], "place_id": "ChIJ0bKOk8ixPIgRsZE90wTb8KU", "plus_code": {"compound_code": "76FC+J6 Ann Arbor, MI, USA", "global_code": "86JR76FC+J6"}, "price_level": 1, "rating": 4.5, "reference": "ChIJ0bKOk8ixPIgRsZE90wTb8KU", "scope": "GOOGLE", "types": ["meal_delivery", "restaurant", "food", "point_of_interest", "establishment"], "user_ratings_total": 1421, "vicinity": "693 South Maple Road, Ann Arbor"}, {"business_status": "OPERATIONAL", "geometry": {"location": {"lat": 42.27498979999999, "lng": -83.7778563}, "viewport": {"northeast": {"lat": 42.2763637302915, "lng": -83.77630001970849}, "southwest": {"lat": 42.2736657697085, "lng": -83.7789979802915}}}, "icon": "https://maps.gstatic.com/mapfiles/place_api/icons/v1/png_71/restaurant-71.png", "icon_background_color": "#FF9E67", "icon_mask_base_uri": "https://maps.gstatic.com/mapfiles/place_api/icons/v2/restaurant_pinlet", "name": "Hot Pot Chen", "opening_hours": {"open_now": true}, "photos": [{"height": 2448, "html_attributions": ["<a href=\"https://maps.google.com/maps/contrib/113188328433504114650\">Mark Johnson</a>"], "photo_reference": "AW30NDyYIm0s-kek7U-J5m0CI5DXykUci0AH60q9QN_NHYoPzK2IPVDC1EMeC39ntJWGIY6tlKoUt1Y6KTHFM3FayIoSiqxHmS4rJ87SHkQ4EdaFvxV7MpEZTJYJCXMgWyzhoD51aA0XbEEnL2QYaz08aKoSHISJP_dzXQf90L5otaWO8gpQ", "width": 3264}], "place_id": "ChIJwx4i-8WxPIgRMV-7zpdW8GA", "plus_code": {"compound_code": "76FC+XV Ann Arbor, MI, USA", "global_code": "86JR76FC+XV"}, "price_level": 2, "rating": 3.9, "reference": "ChIJwx4i-8WxPIgRMV-7zpdW8GA", "scope": "GOOGLE", "types": ["meal_takeaway", "restaurant", "food", "point_of_interest", "establishment"], "user_ratings_total": 284, "vicinity": "2255 West Stadium Boulevard, Ann Arbor"}, {"business_status": "OPERATIONAL", "geometry": {"location": {"lat": 42.2695843, "lng": -83.7723772}, "viewport": {"northeast": {"lat": 42.2709019802915, "lng": -83.77115761970849}, "southwest": {"lat": 42.2682040197085, "lng": -83.7738555802915}}}, "icon": "https://maps.gstatic.com/mapfiles/place_api/icons/v1/png_71/restaurant-71.png", "icon_background_color": "#FF9E67", "icon_mask_base_uri": "https://maps.gstatic.com/mapfiles/place_api/icons/v2/restaurant_pinlet", "name": "Happy Wok", "opening_hours": {"open_now": true}, "photos": [{"height": 2448, "html_attributions": ["<a href=\"https://maps.google.com/maps/contrib/113188328433504114650\">Mark Johnson</a>"], "photo_reference": "AW30NDxOvGc6ovssli91Rm_3EvPVPvfQ-pYhSotmCHP978xeD_VCuX6h6o9f8W3BRhcRNqV9ns6Kl7DRhfh9FMgsxaYfSNf8YagIdA0_0MqiaRwrOw76aIZtOBDXI6SMOrpiMvk1Zdx4OzMktWiuG1P25-PisTErw2-ZUGYDcIrtIEyYyjOS", "width": 3264}], "place_id": "ChIJH9_zPdKxPIgR5I3LKVqS_Ho", "plus_code": {"compound_code": "769H+R2 Ann Arbor, MI, USA", "global_code": "86JR769H+R2"}, "price_level": 1, "rating": 4, "reference": "ChIJH9_zPdKxPIgR5I3LKVqS_Ho", "scope": "GOOGLE", "types": ["meal_takeaway", "restaurant", "food", "point_of_interest", "establishment"], "user_ratings_total": 226, "vicinity": "1916 West Stadium Boulevard, Ann Arbor"}, {"business_status": "OPERATIONAL", "geometry": {"location": {"lat": 42.2724334, "lng": -83.7751396}, "viewport": {"northeast": {"lat": 42.27375033029149, "lng": -83.77398256970848}, "southwest": {"lat": 42.27105236970849, "lng": -83.7766805302915}}}, "icon": "https://maps.gstatic.com/mapfiles/place_api/icons/v1/png_71/restaurant-71.png", "icon_background_color": "#FF9E67", "icon_mask_base_uri": "https://maps.gstatic.com/mapfiles/place_api/icons/v2/restaurant_pinlet", "name": "Holiday's Restaurant", "opening_hours": {"open_now": true}, "photos": [{"height": 4032, "html_attributions": ["<a href=\"https://maps.google.com/maps/contrib/101317409537168906181\">Kristine Adams</a>"], "photo_reference": "AW30NDwiArY7tgG6-ReaFvl8bbQ-mzwDRD6RgKfkEdvj-L9frD1Adzcs1VnX9-WC-y3mgj_BqRq2vwooGm2fh7bGj8gm1Rslwn1tpwXcL-iL-GK3Qlq0f8Ap_3Fe9yT8a-KXUt57E6AUGnExQSWhHO2MGowkPmuVFhqJ4BoW6JOoc4HWnUqI", "width": 3024}], "place_id": "ChIJPRBnr8-xPIgRosZ_6Ytvdzo", "plus_code": {"compound_code": "76CF+XW Ann Arbor, MI, USA", "global_code": "86JR76CF+XW"}, "price_level": 1, "rating": 4.5, "reference": "ChIJPRBnr8-xPIgRosZ_6Ytvdzo", "scope": "GOOGLE", "types": ["restaurant", "food", "point_of_interest", "establishment"], "user_ratings_total": 861, "vicinity": "2080 West Stadium Boulevard, Ann Arbor"}, {"business_status": "OPERATIONAL", "geometry": {"location": {"lat": 42.2736506, "lng": -83.7777074}, "viewport": {"northeast": {"lat": 42.2751856802915, "lng": -83.7762267197085}, "southwest": {"lat": 42.2724877197085, "lng": -83.77892468029151}}}, "icon": "https://maps.gstatic.com/mapfiles/place_api/icons/v1/png_71/restaurant-71.png", "icon_background_color": "#FF9E67", "icon_mask_base_uri": "https://maps.gstatic.com/mapfiles/place_api/icons/v2/restaurant_pinlet", "name": "Chan Garden", "opening_hours": {"open_now": true}, "photos": [{"height": 3024, "html_attributions": ["<a href=\"https://maps.google.com/maps/contrib/105950996407587062606\">Sean Rice</a>"], "photo_reference": "AW30NDyuB5O8Y76hsApWhFBZeFE-V_20L_kgWwuNQjOaBLn_Qpy8Fv9Cj1fwWopyRCDz21lr-EUEIagub2h-xb4Qk2h1XuV8w7sL7k8nilfQbzXcbsAneCxZG4hYsryE4oeBw5T3e_Aq_mTVUxkKNnHdbmtsEvlmIRg8Fp7__oGFOJL71Hga", "width": 4032}], "place_id": "ChIJWzstXM-xPIgRzmHP3s8sH4I", "plus_code": {"compound_code": "76FC+FW Ann Arbor, MI, USA", "global_code": "86JR76FC+FW"}, "price_level": 1, "rating": 3.8, "reference": "ChIJWzstXM-xPIgRzmHP3s8sH4I", "scope": "GOOGLE", "types": ["meal_delivery", "restaurant", "food", "point_of_interest", "establishment"], "user_ratings_total": 81, "vicinity": "2265 West Liberty Road, Ann Arbor"}, {"business_status": "OPERATIONAL", "geometry": {"location": {"lat": 42.2733736, "lng": -83.7764456}, "viewport": {"northeast": {"lat": 42.27472583029149, "lng": -83.77498451970851}, "southwest": {"lat": 42.2720278697085, "lng": -83.77768248029152}}}, "icon": "https://maps.gstatic.com/mapfiles/place_api/icons/v1/png_71/restaurant-71.png", "icon_background_color": "#FF9E67", "icon_mask_base_uri": "https://maps.gstatic.com/mapfiles/place_api/icons/v2/restaurant_pinlet", "name": "Bell's Diner", "opening_hours": {"open_now": true}, "photos": [{"height": 2988, "html_attributions": ["<a href=\"https://maps.google.com/maps/contrib/100693579817013712409\">Vince Peters</a>"], "photo_reference": "AW30NDwjCTtqj6TEQ3vpekeS5FmV1U9-bRzcnrvbVyvZ1DUG3M1woTOl_hJdvR4utwZuG0RrbKfernWzS_7mMcGQ_R1YcRGb74SDS5RiQAdC8ZX5-SVEcsER5B0SVKXR6Y0U4xFhJitY1MnnsebCEgXsxkAw4gnRvjww7lbrFkMG5S0wZU9H", "width": 5312}], "place_id": "ChIJnZv1cc-xPIgRHA2gkcdbyG4", "plus_code": {"compound_code": "76FF+8C Ann Arbor, MI, USA", "global_code": "86JR76FF+8C"}, "price_level": 1, "rating": 4.6, "reference": "ChIJnZv1cc-xPIgRHA2gkcdbyG4", "scope": "GOOGLE", "types": ["meal_takeaway", "restaurant", "food", "point_of_interest", "establishment"], "user_ratings_total": 769, "vicinity": "2167 West Stadium Boulevard, Ann Arbor"}, {"business_status": "OPERATIONAL", "geometry": {"location": {"lat": 42.2760778, "lng": -83.77827549999999}, "viewport": {"northeast": {"lat": 42.2774997802915, "lng": -83.7768720197085}, "southwest": {"lat": 42.2748018197085, "lng": -83.77956998029151}}}, "icon": "https://maps.gstatic.com/mapfiles/place_api/icons/v1/png_71/generic_business-71.png", "icon_background_color": "#7B9EB0", "icon_mask_base_uri": "https://maps.gstatic.com/mapfiles/place_api/icons/v2/generic_pinlet", "name": "Cottage Inn Pizza Ann Arbor Stadium", "opening_hours": {"open_now": true}, "photos": [{"height": 2448, "html_attributions": ["<a href=\"https://maps.google.com/maps/contrib/102159824683972188550\">Cottage Inn Pizza Ann Arbor Stadium</a>"], "photo_reference": "AW30NDyu-wpXijRTogrQHzCtOEZj9RzlxET_OmSlGRlt6VaYOIIHck7CjjUxFozCxh_8ngyRI0Yeng5VuAuiKiygmWr-SuN-D6TrMWtzc8mvJbuY81zWJ9UcjKFLF2H6WleipPzXM7FoimmZjBwuKcbvxZGxj9Q5PkOzf55L1pESqtGaUvzy", "width": 3264}], "place_id": "ChIJy47UdsaxPIgRkX1EOBoC67c", "plus_code": {"compound_code": "76GC+CM Ann Arbor, MI, USA", "global_code": "86JR76GC+CM"}, "price_level": 1, "rating": 4, "reference": "ChIJy47UdsaxPIgRkX1EOBoC67c", "scope": "GOOGLE", "types": ["meal_takeaway", "lodging", "meal_delivery", "restaurant", "food", "point_of_interest", "establishment"], "user_ratings_total": 322, "vicinity": "2301 West Stadium Boulevard, Ann Arbor"}, {"business_status": "OPERATIONAL", "geometry": {"location": {"lat": 42.2737305, "lng": -83.7771451}, "viewport": {"northeast": {"lat": 42.27508933029149, "lng": -83.7759215697085}, "southwest": {"lat": 42.27239136970849, "lng": -83.77861953029151}}}, "icon": "https://maps.gstatic.com/mapfiles/place_api/icons/v1/png_71/restaurant-71.png", "icon_background_color": "#FF9E67", "icon_mask_base_uri": "https://maps.gstatic.com/mapfiles/place_api/icons/v2/restaurant_pinlet", "name": "Taco King", "opening_hours": {"open_now": true}, "photos": [{"height": 3024, "html_attributions": ["<a href=\"https://maps.google.com/maps/contrib/109679702059744729327\">James Smith</a>"], "photo_reference": "AW30NDxjAC7DCFDTVhowHKBDcfZHEOnkxAux0WvD3kYWWKvD4vNetgzokw0KL0xKGlXZpE4inUO2rL7tiS50GvUej0XPU6wiWZBuHGiO79Dld01f9mgGefp4iATNK68s033B__132A5zatjA0h8qEnHL-ANfIPFJ2jSq6xRIhO8Rh9gyrBmH", "width": 4032}], "place_id": "ChIJK1wjQ8-xPIgRFGOtwsOaG4U", "plus_code": {"compound_code": "76FF+F4 Ann Arbor, MI, USA", "global_code": "86JR76FF+F4"}, "price_level": 1, "rating": 4.2, "reference": "ChIJK1wjQ8-xPIgRFGOtwsOaG4U", "scope": "GOOGLE", "types": ["supermarket", "grocery_or_supermarket", "meal_delivery", "store", "restaurant", "food", "point_of_interest", "establishment"], "user_ratings_total": 437, "vicinity": "2231 West Liberty Road, Ann Arbor"}, {"business_status": "OPERATIONAL", "geometry": {"location": {"lat": 42.27482699999999, "lng": -83.7776251}, "viewport": {"northeast": {"lat": 42.27623938029149, "lng": -83.7760882197085}, "southwest": {"lat": 42.27354141970849, "lng": -83.7787861802915}}}, "icon": "https://maps.gstatic.com/mapfiles/place_api/icons/v1/png_71/restaurant-71.png", "icon_background_color": "#FF9E67", "icon_mask_base_uri": "https://maps.gstatic.com/mapfiles/place_api/icons/v2/restaurant_pinlet", "name": "Noodles and Company", "opening_hours": {"open_now": true}, "photos": [{"height": 1944, "html_attributions": ["<a href=\"https://maps.google.com/maps/contrib/100202453941242263603\">LaRoice Turner</a>"], "photo_reference": "AW30NDylRoncFde4MAHwJXtXpbKQFEumYaWyFrm2JanyPuAh_H6BA8d30h4SMJ349WSFaK9hOV1qh0kUzQgeXbmOB_PJZde-aZ2HLgpMCByRJXY8LMF1Q-3lK7sOS3dBoFqhni5CzCBTERYz6BHszOoL2MLwgU38mSDGI3nt_4Cq_YeU3ZU", "width": 2592}], "place_id": "ChIJMx2-8MWxPIgRDdf6gsUcV9Q", "plus_code": {"compound_code": "76FC+WW Ann Arbor, MI, USA", "global_code": "86JR76FC+WW"}, "price_level": 1, "rating": 4.1, "reference": "ChIJMx2-8MWxPIgRDdf6gsUcV9Q", "scope": "GOOGLE", "types": ["restaurant", "meal_takeaway", "store", "food", "point_of_interest", "establishment"], "user_ratings_total": 492, "vicinity": "2245 West Stadium Boulevard, Ann Arbor"}, {"business_status": "OPERATIONAL", "geometry": {"location": {"lat": 42.2722328, "lng": -83.7763628}, "viewport": {"northeast": {"lat": 42.2736558802915, "lng": -83.7749284697085}, "southwest": {"lat": 42.2709579197085, "lng": -83.7776264302915}}}, "icon": "https://maps.gstatic.com/mapfiles/place_api/icons/v1/png_71/bar-71.png", "icon_background_color": "#FF9E67", "icon_mask_base_uri": "https://maps.gstatic.com/mapfiles/place_api/icons/v2/bar_pinlet", "name": "Don Juan Mexican Bar & Grill", "opening_hours": {"open_now": true}, "photos": [{"height": 1080, "html_attributions": ["<a href=\"https://maps.google.com/maps/contrib/108842225837924190716\">Frank Lewandowski</a>"], "photo_reference": "AW30NDzFIMmDR-xPszIWJ7xviONXIrd5T3UNHoZVJhwtJMYqAl29CIn3nhmGZ9gYRBjumlawh6hvOpdDMkfsa71gIqlyAwklcea8vH5SsjAB8HALr344inXoEnIu613U8-Hc7I09_qLO3qENpt4MupE9XLEXQdsSdCIuAODLSugCyTtNQQRD", "width": 1920}], "place_id": "ChIJo3T7p8-xPIgRBA_6Pgpx600", "plus_code": {"compound_code": "76CF+VF Ann Arbor, MI, USA", "global_code": "86JR76CF+VF"}, "price_level": 1, "rating": 4.3, "reference": "ChIJo3T7p8-xPIgRBA_6Pgpx600", "scope": "GOOGLE", "types": ["bar", "restaurant", "food", "point_of_interest", "establishment"], "user_ratings_total": 672, "vicinity": "2135 West Stadium Boulevard, Ann Arbor"}, {"business_status": "OPERATIONAL", "geometry": {"location": {"lat": 42.2723975, "lng": -83.7764771}, "viewport": {"northeast": {"lat": 42.2737918802915, "lng": -83.77502321970849}, "southwest": {"lat": 42.27109391970851, "lng": -83.7777211802915}}}, "icon": "https://maps.gstatic.com/mapfiles/place_api/icons/v1/png_71/generic_business-71.png", "icon_background_color": "#7B9EB0", "icon_mask_base_uri": "https://maps.gstatic.com/mapfiles/place_api/icons/v2/generic_pinlet", "name": "Toarmina's Pizza (Ann Arbor West)", "opening_hours": {"open_now": true}, "photos": [{"height": 3024, "html_attributions": ["<a href=\"https://maps.google.com/maps/contrib/102160014082918523039\">Toarmina&#39;s Pizza (Ann Arbor West)</a>"], "photo_reference": "AW30NDwf5Pf6EdRL-t85GGy2vNQfRwF7JCWHAUnYQdaywuCNyndsrQkxQhXy14UYbClpGIHcI-SeR-4_6M6hvebTzOLRDrlJYHdsSKQbN7n1tkqcrDmcNT0o5Y9GgiMILwwCbgy9qPgCb1kGgcRXF1EK90j7U9-4_G4wYEjJy04jA11MZ8oJ", "width": 3025}], "place_id": "ChIJifmX1CCxPIgRH8VbmdQeono", "plus_code": {"compound_code": "76CF+XC Ann Arbor, MI, USA", "global_code": "86JR76CF+XC"}, "price_level": 1, "rating": 4.1, "reference": "ChIJifmX1CCxPIgRH8VbmdQeono", "scope": "GOOGLE", "types": ["meal_takeaway", "meal_delivery", "restaurant", "food", "point_of_interest", "establishment"], "user_ratings_total": 87, "vicinity": "2145 West Stadium Boulevard, Ann Arbor"}, {"business_status": "OPERATIONAL", "geometry": {"location": {"lat": 42.2724171, "lng": -83.7764842}, "viewport": {"northeast": {"lat": 42.2737998802915, "lng": -83.7750254697085}, "southwest": {"lat": 42.2711019197085, "lng": -83.7777234302915}}}, "icon": "https://maps.gstatic.com/mapfiles/place_api/icons/v1/png_71/restaurant-71.png", "icon_background_color": "#FF9E67", "icon_mask_base_uri": "https://maps.gstatic.com/mapfiles/place_api/icons/v2/restaurant_pinlet", "name": "Sarah's Sweets", "opening_hours": {"open_now": true}, "photos": [{"height": 482, "html_attributions": ["<a href=\"https://maps.google.com/maps/contrib/110213142902156639162\">Sarah&#39;s Sweets</a>"], "photo_reference": "AW30NDyG9VIXzmoSq4KdwDrXzNUqblVE3Vs3sJDNsYiCfLMAHYXQWvVbsfvP7Dhvl5ZuYNa-uL_p-x62MSlTbpJMZnVg_ZT_PyQUwSGgWzXHwy36U3eil8FeHbM_cBLtwBtxtMIYi7q8stWDDMxE5EGw-iuWfyYagStKCq8U2rNASwKEncXw", "width": 550}], "place_id": "ChIJIeJxa1OxPIgRHa_W2pohezA", "plus_code": {"compound_code": "76CF+XC Ann Arbor, MI, USA", "global_code": "86JR76CF+XC"}, "rating": 3.6, "reference": "ChIJIeJxa1OxPIgRHa_W2pohezA", "scope": "GOOGLE", "types": ["restaurant", "meal_takeaway", "bakery", "store", "food", "point_of_interest", "establishment"], "user_ratings_total": 15, "vicinity": "2145 West Stadium Boulevard, Ann Arbor"}, {"business_status": "OPERATIONAL", "geometry": {"location": {"lat": 42.27241069999999, "lng": -83.7764751}, "viewport": {"northeast": {"lat": 42.27375333029149, "lng": -83.7750227697085}, "southwest": {"lat": 42.27105536970849, "lng": -83.7777207302915}}}, "icon": "https://maps.gstatic.com/mapfiles/place_api/icons/v1/png_71/generic_business-71.png", "icon_background_color": "#7B9EB0", "icon_mask_base_uri": "https://maps.gstatic.com/mapfiles/place_api/icons/v2/generic_pinlet", "name": "Ynot Wings", "opening_hours": {"open_now": true}, "photos": [{"height": 4032, "html_attributions": ["<a href=\"https://maps.google.com/maps/contrib/106964220908448074655\">Christopher Demetriou</a>"], "photo_reference": "AW30NDy36QGiURwInqLTvkoBPWZMx5VOZlHGAxvJQ12X4PKQwz4YiUlfuYVrAFXxA0Bf5dLG4l9Jrc1dsLO1Q91W4KM7GR2R_tsdS5QHavjCHrgKOOglbRNyy1ldmKHDZYnPo9Up2jXThz4aUbqHYZbzwkGEF5Ty7X_5VaV_QLc3AkqgqiSp", "width": 3024}], "place_id": "ChIJN0rt9f6xPIgRWEbpSEp5028", "plus_code": {"compound_code": "76CF+XC Ann Arbor, MI, USA", "global_code": "86JR76CF+XC"}, "price_level": 1, "rating": 3.5, "reference": "ChIJN0rt9f6xPIgRWEbpSEp5028", "scope": "GOOGLE", "types": ["meal_delivery", "restaurant", "food", "point_of_interest", "establishment"], "user_ratings_total": 4, "vicinity": "2145 West Stadium Boulevard, Ann Arbor"}, {"business_status": "OPERATIONAL", "geometry": {"location": {"lat": 42.273879, "lng": -83.77935839999999}, "viewport": {"northeast": {"lat": 42.2752768302915, "lng": -83.77836066970849}, "southwest": {"lat": 42.2725788697085, "lng": -83.7810586302915}}}, "icon": "https://maps.gstatic.com/mapfiles/place_api/icons/v1/png_71/restaurant-71.png", "icon_background_color": "#FF9E67", "icon_mask_base_uri": "https://maps.gstatic.com/mapfiles/place_api/icons/v2/restaurant_pinlet", "name": "Buscemi's of Ann Arbor", "opening_hours": {"open_now": true}, "photos": [{"height": 1000, "html_attributions": ["<a href=\"https://maps.google.com/maps/contrib/110147476595862377257\">Buscemi&#39;s of Ann Arbor</a>"], "photo_reference": "AW30NDyhjvRL9LxM084EPxao_Qy1TdiIGm0M5Yu_iXFlCIQwhLie2LmXczpi8LLelzLJWM3Ch0_1RiI2ijq7fb0vBPTABnl6F06hDCamHM-oiqjI-Y5LhehtDctAGIktZ4Hl8AEzi-PpZk5BxDKgSqwQ7UdN7vRCX_MDjcnzpWROlv-8BbTT", "width": 750}], "place_id": "ChIJ3Sx2lMixPIgR9FKNLF38dew", "plus_code": {"compound_code": "76FC+H7 Ann Arbor, MI, USA", "global_code": "86JR76FC+H7"}, "price_level": 1, "rating": 4.1, "reference": "ChIJ3Sx2lMixPIgR9FKNLF38dew", "scope": "GOOGLE", "types": ["liquor_store", "finance", "meal_takeaway", "store", "restaurant", "food", "point_of_interest", "establishment"], "user_ratings_total": 76, "vicinity": "695 South Maple Road, Ann Arbor"}, {"business_status": "OPERATIONAL", "geometry": {"location": {"lat": 42.2737079, "lng": -83.7776363}, "viewport": {"northeast": {"lat": 42.2751251802915, "lng": -83.77616816970848}, "southwest": {"lat": 42.2724272197085, "lng": -83.7788661302915}}}, "icon": "https://maps.gstatic.com/mapfiles/place_api/icons/v1/png_71/cafe-71.png", "icon_background_color": "#FF9E67", "icon_mask_base_uri": "https://maps.gstatic.com/mapfiles/place_api/icons/v2/cafe_pinlet", "name": "19 Drips Coffee & Tea", "opening_hours": {"open_now": true}, "photos": [{"height": 3024, "html_attributions": ["<a href=\"https://maps.google.com/maps/contrib/118235650680432039959\">Koustav Dasgupta</a>"], "photo_reference": "AW30NDwhggv4HL-vFqG7SyKVREz8D_V6SMVEKiXjFdDO_H2S5GIYUTNurXbL4-2vDsAubpZScI4_SulFDB0QS9bQQliRmdRuyvOSylCqG2bQ7qF-WobP2jVYxLm1RG0utOwegrFC0JSyz1iFjrwbcKglssX6UmSA0Ee2BvzjI3xyO5fCq_hq", "width": 4032}], "place_id": "ChIJlWpaZcaxPIgR6BgBdK43t70", "plus_code": {"compound_code": "76FC+FW Ann Arbor, MI, USA", "global_code": "86JR76FC+FW"},